,id_seguimiento,id_arbol,fecha_hora,tipo_seguimiento,estado_salud,fuste,tipo_cazoleta,ahuecamiento,inclinacion,altura,fase_vital,riesgo,levantamiento_vereda,tipo_tierra,tipo_calle,luz_led,direccion,tipo_vereda,lado_vereda,especie,tipo_tendido,distancia_entre_ar,distancia_al_muro,lng,lat
0,1,8,11/05/2023 11:13:08,Plantacion,0,Entre 0.10 y 0.40 m,Mediana,No,Sin inclinación,Menor a 5 m,Joven,Sin riesgo de caída,No,Arenosa,Asfalto,Si,San Juan 1278,Chica,Par,Crespón,Ninguno,5.0,1.0,-58.837098407306,-27.471855988173004
1,3,16,11/05/2023 11:25:05,Plantacion,0,Menor a 0.10 m,Nivel del Piso,No,Sin inclinación,Menor a 5 m,Joven,Sin riesgo de caída,Considerable,Arenosa,Asfalto,Si,San juan 1268,Chica,Impar,Crespón,Ninguno,5.0,1.0,-58.837121250061,-27.471663461174
2,4,17,11/05/2023 11:27:05,Plantacion,0,Menor a 0.10 m,Chica,No,Sin inclinación,Menor a 5 m,Joven,Sin riesgo de caída,No,Limosa,Asfalto,Si,Bolivar 1074,Mediana,Par,Paraíso,Media Tensión (Con Protección),5.0,2.0,-58.837566779011006,-27.470888509816
3,5,18,11/05/2023 11:33:16,Plantacion,0,Entre 0.10 y 0.40 m,Mediana,No,Sin inclinación,Menor a 5 m,Joven,Sin riesgo de caída,Considerable,Arenosa,Asfalto,Si,Bolívar 1110,Grande,Par,Crespón,Preensamblado,3.0,1.0,-58.83694298371799,-27.470921673199
4,6,19,11/05/2023 11:34:17,Plantacion,0,Menor a 0.10 m,Nivel del Piso,No,Sin inclinación,Menor a 5 m,Joven,Sin riesgo de caída,No,Arenosa,Asfalto,Si,Bolivar 1134,Grande,Par,Crespón,Preensamblado,5.0,2.0,-58.836670426976,-27.470951007095
5,7,20,11/05/2023 12:01:04,Plantacion,0,Menor a 0.10 m,Nivel del Piso,No,Sin inclinación,Menor a 5 m,Joven,Sin riesgo de caída,No,Arenosa,Asfalto,No,Roca s/n,Grande,Par,Moringa,Ninguno,4.0,0.0,-58.822073884707,-27.467295483101
6,8,21,11/05/2023 12:01:17,Plantacion,0,Entre 0.10 y 0.40 m,Grande,No,Sin inclinación,Menor a 5 m,Joven,Sin riesgo de caída,Considerable,Arenosa,Asfalto,No,Calle Roca S/N,Grande,Par,Palo Borracho,Preensamblado,4.0,0.0,-58.821954670511,-27.467277300477
7,9,22,11/05/2023 12:05:05,Plantacion,0,Menor a 0.10 m,Nivel del Piso,No,Leve,De 10 a 15 m,Joven,Sin riesgo de caída,No,Arenosa,Asfalto,No,Roca sn,Grande,Par,Jacarandá,Preensamblado,5.0,0.0,-58.82202625484,-27.467245999966
8,10,23,11/05/2023 12:07:10,Plantacion,0,Entre 0.10 y 0.40 m,Sin Cazoleta,No,Sin inclinación,Menor a 5 m,Añoso,Sin riesgo de caída,Considerable,Arenosa,Asfalto,Si,Roca 750,Grande,Par,Ibirá Pitá,Media Tensión (Con Protección),3.0,2.0,-58.82229677109401,-27.467415316535
9,11,24,11/05/2023 12:10:23,Plantacion,0,Mayor a 0.8 m,Nivel del Piso,No,Sin inclinación,Menor a 5 m,Joven,Sin riesgo de caída,No,Arenosa,Asfalto,No,Roca sn,Grande,Par,Jacarandá,Preensamblado,5.0,0.0,-58.821989624732,-27.467220046228
10,12,25,11/05/2023 12:15:46,Plantacion,0,Entre 0.10 y 0.40 m,Mediana,No,Leve,Menor a 5 m,Joven,Sin riesgo de caída,Considerable,Arenosa,Asfalto,No,Roca S/N,Mediana,Par,Jacarandá,Preensamblado,3.0,4.0,-58.822201149715,-27.467384019009
11,13,26,12/05/2023 8:27:22,Plantacion,0,Entre 0.10 y 0.40 m,Chica,No,Sin inclinación,Menor a 5 m,Joven,Sin riesgo de caída,No,Negra,Asfalto,Si,Gobernador velazco 2051,Mediana,Impar,Pata de Buey,Media Tensión (Con Protección),7.0,2.0,-58.833167686824,-27.481715683003
12,14,27,12/05/2023 8:51:46,Plantacion,0,Entre 0.10 y 0.40 m,Mediana,No,Sin inclinación,Menor a 5 m,Joven,Sin riesgo de caída,No,Negra,Asfalto,Si,Jujuy 749,Mediana,Impar,Paraíso,Alta tensión (Con Protección),2.0,1.0,-58.827643918426,-27.466503766439
13,15,28,12/05/2023 9:08:34,Plantacion,0,Entre 0.10 y 0.40 m,Chica,No,Sin inclinación,Menor a 5 m,Joven,Sin riesgo de caída,No,Negra,Asfalto,Si,Carlos pellegrini 681,Chica,Impar,Pata de Buey,Preensamblado,8.0,1.0,-58.841770291328,-27.464813336333
14,16,29,12/05/2023 10:01:51,Plantacion,0,Entre 0.10 y 0.40 m,Chica,No,Sin inclinación,Menor a 5 m,Joven,Sin riesgo de caída,No,Negra,Asfalto,Si,La valle 2183,Mediana,Impar,Pata de Buey,Media Tensión (Con Protección),3.0,1.0,-58.82417251444,-27.478163208876
15,17,30,12/05/2023 10:15:34,Plantacion,0,Entre 0.10 y 0.40 m,Grande,No,Sin inclinación,Menor a 5 m,Joven,Sin riesgo de caída,No,Negra,Asfalto,No,General paz 2425,Mediana,Impar,Paraíso,Alta tensión (Sin Protección),4.0,1.0,-58.821234939572,-27.479882891217
16,18,31,16/05/2023 8:21:31,Plantacion,0,Entre 0.10 y 0.40 m,Sin Cazoleta,No,Sin inclinación,Menor a 5 m,Añoso,Arbol parasitado (con especies vegetales),No,Negra,Ripio,Si,Pedri de siervi mz.34 lote 5,Grande,Impar,Paraíso,Alta tensión (Con Protección),3.0,5.0,-58.809446249921,-27.52745809846
17,23,36,16/05/2023 9:52:01,Plantacion,0,Entre 0.10 y 0.40 m,Sin Cazoleta,No,Sin inclinación,Menor a 5 m,Joven,Sin riesgo de caída,No,Limosa,Ripio,Si,Maria teresa villone 5521,Grande,Impar,Paraíso,Alta tensión (Con Protección),5.0,4.0,-58.81086786831601,-27.526653440112
18,25,38,16/05/2023 10:13:53,Plantacion,0,Entre 0.10 y 0.40 m,Sin Cazoleta,No,Sin inclinación,Menor a 5 m,Joven,Sin riesgo de caída,No,Limosa,Ripio,Si,Maria teresa villon 5521,Grande,Impar,Ñangapirí,Alta tensión (Con Protección),2.0,5.0,-58.81085960823201,-27.526563768315
19,26,39,16/05/2023 10:33:13,Plantacion,0,Entre 0.10 y 0.40 m,Sin Cazoleta,No,Sin inclinación,Menor a 5 m,Joven,Sin riesgo de caída,No,Limosa,Ripio,Si,Emilio noya 332,Mediana,Par,Paraíso,Media Tensión (Con Protección),5.0,2.0,-58.81271781379501,-27.526338477570004
20,27,40,16/05/2023 10:44:36,Plantacion,0,Entre 0.10 y 0.40 m,Sin Cazoleta,No,Sin inclinación,Menor a 5 m,Joven,Sin riesgo de caída,No,Limosa,Ripio,Si,Emilio noya 305 esq. Esquivel,Mediana,Par,Thevetia,Alta tensión (Con Protección),5.0,3.0,-58.81276493181,-27.527123367108
21,29,42,16/05/2023 11:11:07,Plantacion,0,Entre 0.10 y 0.40 m,Sin Cazoleta,No,Leve,Menor a 5 m,Joven,Sin riesgo de caída,No,Limosa,Ripio,Si,Montenegro y argentina roja 3490,Mediana,Impar,Pata de Buey,Media Tensión (Con Protección),5.0,2.0,-58.815919160843,-27.522801200765
22,30,43,16/05/2023 11:17:54,Plantacion,0,Entre 0.10 y 0.40 m,Sin Cazoleta,No,Sin inclinación,Menor a 5 m,Joven,Sin riesgo de caída,No,Limosa,Ripio,Si,Argentina roja 3333,Chica,Impar,Thevetia,Media Tensión (Con Protección),5.0,2.0,-58.815691586162,-27.523060532664
23,32,45,17/05/2023 9:01:57,Plantacion,0,Entre 0.10 y 0.40 m,Sin Cazoleta,No,Sin inclinación,Menor a 5 m,Joven,Sin riesgo de caída,No,Limosa,Ripio,Si,Argentino roja,Mediana,Impar,Pata de Buey,Media Tensión (Con Protección),5.0,3.0,-58.808304137434,-27.523486750666
24,33,46,17/05/2023 9:45:32,Plantacion,0,Entre 0.10 y 0.40 m,Sin Cazoleta,No,Sin inclinación,Menor a 5 m,Joven,Sin riesgo de caída,No,Limosa,Ripio,Si,Emilio noya285,Mediana,Par,Paraíso,Media Tensión (Con Protección),3.0,3.0,-58.812356961168,-27.525631908578
25,36,49,17/05/2023 10:20:50,Plantacion,0,Entre 0.10 y 0.40 m,Sin Cazoleta,No,Sin inclinación,Menor a 5 m,Joven,Sin riesgo de caída,No,Limosa,Ripio,Si,Dimota 3661,Mediana,Impar,Pata de Buey,Media Tensión (Con Protección),9.0,3.0,-58.811905127788,-27.524989628468
26,37,50,17/05/2023 10:29:09,Plantacion,0,Entre 0.10 y 0.40 m,Sin Cazoleta,No,Sin inclinación,Menor a 5 m,Joven,Sin riesgo de caída,No,Limosa,Ripio,Si,Damota 3639,Mediana,Impar,Thevetia,Media Tensión (Con Protección),9.0,3.0,-58.812529188245,-27.524842041879
27,38,51,18/05/2023 11:30:39,Plantacion,0,Entre 0.10 y 0.40 m,Sin Cazoleta,No,Sin inclinación,Menor a 5 m,Joven,Sin riesgo de caída,No,Negra,Asfalto,Si,Plaza libertad,Grande,Par,Ibirá Pitá,Ninguno,3.0,0.0,-58.822606760112,-27.470501646053
28,41,54,19/05/2023 8:54:18,Plantacion,0,Entre 0.10 y 0.40 m,Sin Cazoleta,No,Sin inclinación,Menor a 5 m,Joven,Sin riesgo de caída,No,Arenosa,Tierra,Si,Coronel artaza y laureles,Mediana,Par,Paraíso,Media Tensión (Con Protección),3.0,2.0,-58.784621479716,-27.493683032971
29,43,56,19/05/2023 10:02:35,Plantacion,0,Entre 0.10 y 0.40 m,Sin Cazoleta,No,Sin inclinación,Menor a 5 m,Joven,Sin riesgo de caída,No,Limosa,Ripio,Si,Adolfo cipriano 130,Mediana,Par,Pata de Buey,Alta tensión (Con Protección),4.0,3.0,-58.81412373915601,-27.522548197498
30,44,57,19/05/2023 10:12:47,Plantacion,0,Entre 0.10 y 0.40 m,Sin Cazoleta,No,Sin inclinación,Menor a 5 m,Joven,Sin riesgo de caída,No,Limosa,Ripio,Si,Adolfo cipriano 2832,Mediana,Par,Pata de Buey,Alta tensión (Con Protección),4.0,3.0,-58.814044276757,-27.522722239469
31,20,33,16/05/2023 8:38:03,Plantacion,0,Entre 0.10 y 0.40 m,Sin Cazoleta,No,Sin inclinación,Menor a 5 m,Joven,Sin riesgo de caída,No,Negra,Ripio,Si,Pedro de servi,Grande,Impar,Thevetia,Alta tensión (Con Protección),2.0,4.0,-58.809453412725,-27.527584294688005
32,21,34,16/05/2023 8:57:26,Plantacion,0,Entre 0.10 y 0.40 m,Sin Cazoleta,No,Sin inclinación,Menor a 5 m,Joven,Sin riesgo de caída,No,Negra,Ripio,Si,Pedro deservi,Grande,Impar,Pata de Buey,Alta tensión (Con Protección),6.0,4.0,-58.809310629124,-27.526939583089
33,22,35,16/05/2023 9:39:03,Plantacion,0,Entre 0.10 y 0.40 m,Sin Cazoleta,No,Sin inclinación,Menor a 5 m,Joven,Sin riesgo de caída,No,Limosa,Ripio,Si,Pedro deservi,Chica,Par,Thevetia,Alta tensión (Con Protección),2.0,2.0,-58.809235329174,-27.525129855947004
34,48,61,19/05/2023 11:30:27,Plantacion,0,Entre 0.10 y 0.40 m,Sin Cazoleta,No,Sin inclinación,Menor a 5 m,Joven,Sin riesgo de caída,No,Limosa,Ripio,Si,Dimotta,Parterre Central,Par,Ibirá Pitá,Ninguno,5.0,20.0,-58.811441972502,-27.522483520411
35,28,41,16/05/2023 10:57:11,Plantacion,0,Entre 0.10 y 0.40 m,Sin Cazoleta,No,Sin inclinación,Menor a 5 m,Joven,Sin riesgo de caída,No,Limosa,Ripio,Si,Argentina rojas 3353,Mediana,Impar,Paraíso,Media Tensión (Con Protección),2.0,2.0,-58.816371863935,-27.522788672357
36,31,44,16/05/2023 11:38:22,Plantacion,0,Entre 0.10 y 0.40 m,Sin Cazoleta,No,Sin inclinación,Menor a 5 m,Joven,Sin riesgo de caída,No,Limosa,Ripio,Si,Maria villon 5432,Mediana,Par,Pata de Buey,Media Tensión (Con Protección),2.0,2.0,-58.81084249102,-27.524844544715
37,34,47,17/05/2023 10:00:19,Plantacion,0,Entre 0.10 y 0.40 m,Sin Cazoleta,No,Sin inclinación,Menor a 5 m,Joven,Sin riesgo de caída,No,Limosa,Ripio,Si,Dimota 3638,Mediana,Par,Paraíso,Media Tensión (Con Protección),3.0,2.0,-58.812356961168,-27.525631908578
38,35,48,17/05/2023 10:15:36,Plantacion,0,Entre 0.10 y 0.40 m,Sin Cazoleta,No,Sin inclinación,Menor a 5 m,Joven,Sin riesgo de caída,No,Limosa,Ripio,Si,Dimota 3638,Mediana,Par,Paraíso,Media Tensión (Con Protección),3.0,3.0,-58.811155317439,-27.525426126107
39,39,52,19/05/2023 7:56:11,Plantacion,0,Entre 0.10 y 0.40 m,Chica,No,Sin inclinación,Menor a 5 m,Joven,Sin riesgo de caída,No,Negra,Asfalto,No,Av. Independencia 5346,Mediana,Par,Paraíso,Alta tensión (Con Protección),3.0,2.0,-58.786264657974,-27.484250715449
40,40,53,19/05/2023 8:16:24,Plantacion,0,Entre 0.10 y 0.40 m,Sin Cazoleta,No,Sin inclinación,Menor a 5 m,Joven,Sin riesgo de caída,No,Arenosa,Ripio,Si,Franklin Ruveda y Perito Moreno,Chica,Impar,Paraíso,Media Tensión (Con Protección),5.0,2.0,-58.786545053612,-27.490647827014
41,42,55,19/05/2023 9:37:47,Plantacion,0,Entre 0.10 y 0.40 m,Sin Cazoleta,No,Sin inclinación,Menor a 5 m,Joven,Sin riesgo de caída,No,Limosa,Ripio,Si,Heraclio perez 6660,Mediana,Par,Paraíso,Media Tensión (Con Protección),3.0,3.0,-58.81044450957501,-27.527286830919
42,46,59,19/05/2023 11:04:01,Plantacion,0,Entre 0.10 y 0.40 m,Sin Cazoleta,No,Sin inclinación,Menor a 5 m,Joven,Sin riesgo de caída,No,Limosa,Ripio,Si,Abelardo Dimotta,Grande,Par,Ibirá Pitá,Ninguno,5.0,20.0,-58.811273426507,-27.522328393945
43,45,58,19/05/2023 11:01:09,Plantacion,0,Entre 0.10 y 0.40 m,Sin Cazoleta,No,Sin inclinación,Menor a 5 m,Joven,Sin riesgo de caída,No,Limosa,Ripio,Si,Abelardo dimotta,Parterre Central,Par,Jacarandá,Ninguno,5.0,20.0,-58.811327860718,-27.522507174576
44,47,60,19/05/2023 11:25:12,Plantacion,0,Entre 0.10 y 0.40 m,Sin Cazoleta,No,Sin inclinación,Menor a 5 m,Joven,Sin riesgo de caída,No,Limosa,Ripio,Si,Dimotta,Parterre Central,Par,Jacarandá,Ninguno,5.0,20.0,-58.81142787694801,-27.522687293808
45,24,37,16/05/2023 10:10:07,Plantacion,0,Entre 0.10 y 0.40 m,Sin Cazoleta,No,Sin inclinación,Menor a 5 m,Joven,Sin riesgo de caída,No,Limosa,Asfalto,Si,Maria teresa villone 5521,Parterre Central,Impar,Lapacho,Ninguno,5.0,10.0,-58.811157221642006,-27.526575127386
46,49,62,23/05/2023 8:46:29,Plantacion,0,Entre 0.10 y 0.40 m,Sin Cazoleta,No,Sin inclinación,Menor a 5 m,Joven,Sin riesgo de caída,No,Negra,Asfalto,Si,Av. Cuba 5401,Grande,Par,Palo Borracho,Subterraneo,8.0,2.0,-58.787743831942,-27.504910545192
47,50,63,23/05/2023 9:22:00,Plantacion,0,Entre 0.10 y 0.40 m,Sin Cazoleta,No,Sin inclinación,Menor a 5 m,Joven,Sin riesgo de caída,No,Negra,Asfalto,No,Turin 2919,Chica,Impar,Thevetia,Media Tensión (Con Protección),2.0,2.0,-58.786417497138,-27.50937292715
48,52,65,24/05/2023 8:19:25,Plantacion,0,Entre 0.10 y 0.40 m,Chica,No,Sin inclinación,Menor a 5 m,Joven,Sin riesgo de caída,No,Negra,Asfalto,Si,"Catamarca, entre belgrano y bolívar",Mediana,Impar,Pata de Buey,Media Tensión (Con Protección),4.0,2.0,-58.83358410756101,-27.471950975098
49,54,67,24/05/2023 8:56:16,Plantacion,0,Menor a 0.10 m,Nivel del Piso,No,Sin inclinación,Menor a 5 m,Joven,Sin riesgo de caída,Considerable,Arenosa,Asfalto,Si,Ciudad de arequipa 2900,Parterre Central,Impar,Ibirá Pitá,Preensamblado,4.0,0.0,-58.832346650239,-27.490406044541
50,55,68,24/05/2023 9:03:57,Plantacion,0,Entre 0.10 y 0.40 m,Mediana,No,Sin inclinación,Menor a 5 m,Joven,Sin riesgo de caída,No,Negra,Asfalto,Si,Calle cordoba,Mediana,Par,Pata de Buey,Media Tensión (Con Protección),4.0,3.0,-58.834748477892006,-27.471891524889
51,56,69,24/05/2023 9:05:47,Plantacion,0,Menor a 0.10 m,Nivel del Piso,No,Sin inclinación,Menor a 5 m,Joven,Sin riesgo de caída,Considerable,Arenosa,Asfalto,No,Congreso 1470,Chica,Impar,Ibirá Pitá,Alta tensión (Con Protección),4.0,0.0,-58.835072476503,-27.492657780819
52,57,70,24/05/2023 9:07:49,Plantacion,0,Menor a 0.10 m,Nivel del Piso,No,Sin inclinación,Menor a 5 m,Joven,Sin riesgo de caída,No,Arenosa,Asfalto,No,Congreso 1470,Chica,Impar,Ibirá Pitá,Alta tensión (Con Protección),4.0,0.0,-58.834908991833,-27.492663253665
53,58,71,24/05/2023 9:10:33,Plantacion,0,Menor a 0.10 m,Nivel del Piso,No,Sin inclinación,Menor a 5 m,Joven,Sin riesgo de caída,No,Arenosa,Asfalto,Si,Congreso 1470,Chica,Impar,Ibirá Pitá,Alta tensión (Con Protección),4.0,0.0,-58.83483810657301,-27.492712297774
54,59,72,24/05/2023 9:17:39,Plantacion,0,Menor a 0.10 m,Chica,No,Sin inclinación,Menor a 5 m,Joven,Sin riesgo de caída,No,Arenosa,Tierra,Si,Congreso,Chica,Impar,Thevetia,Media Tensión (Con Protección),5.0,0.0,-58.834963238279,-27.492330437959
55,60,73,24/05/2023 9:19:37,Plantacion,0,Menor a 0.10 m,Chica,No,Sin inclinación,Menor a 5 m,Joven,Sin riesgo de caída,Considerable,Arenosa,Tierra,Si,Congreso,Chica,Impar,Thevetia,Ninguno,5.0,0.0,-58.834926001677,-27.492232749951
56,61,74,24/05/2023 9:21:54,Plantacion,0,Menor a 0.10 m,Chica,No,Sin inclinación,Menor a 5 m,Joven,Sin riesgo de caída,No,Arenosa,Asfalto,Si,Congreso,Chica,Impar,Thevetia,Media Tensión (Sin Protección),4.0,0.0,-58.835231458310005,-27.49262644857
57,62,75,24/05/2023 9:27:28,Plantacion,0,Menor a 0.10 m,Sobre nivel,No,Sin inclinación,Menor a 5 m,Joven,Sin riesgo de caída,No,Arenosa,Asfalto,Si,Ricardo gutierrez,Chica,Par,Ibirá Pitá,Media Tensión (Con Protección),4.0,0.0,-58.834800204057,-27.491972207909
58,63,76,24/05/2023 9:29:55,Plantacion,0,Entre 0.10 y 0.40 m,Chica,No,Sin inclinación,Menor a 5 m,Joven,Sin riesgo de caída,No,Negra,Asfalto,Si,Belgrano al 1175,Mediana,Impar,Thevetia,Subterraneo,5.0,2.0,-58.836299682827,-27.472037436156
59,64,77,24/05/2023 9:39:29,Plantacion,0,Menor a 0.10 m,Sin Cazoleta,No,Sin inclinación,Menor a 5 m,Joven,Sin riesgo de caída,No,Arenosa,Asfalto,Si,Ricardo gutierrez,Chica,Par,Ibirá Pitá,Media Tensión (Con Protección),4.0,0.0,-58.834734635203,-27.491997296569004
60,65,78,24/05/2023 9:54:15,Plantacion,0,Menor a 0.10 m,Sin Cazoleta,No,Sin inclinación,Menor a 5 m,Joven,Sin riesgo de caída,No,Arenosa,Asfalto,Si,Ricardo gutierrez,Chica,Par,Ibirá Pitá,Media Tensión (Con Protección),4.0,0.0,-58.834622244219005,-27.492003526056
61,66,79,24/05/2023 10:01:47,Plantacion,0,Entre 0.10 y 0.40 m,Chica,No,Sin inclinación,Menor a 5 m,Joven,Sin riesgo de caída,No,Negra,Asfalto,Si,Mendoza 1420,Chica,Par,Thevetia,Media Tensión (Con Protección),4.0,2.0,-58.83597945098298,-27.473570698902
62,67,80,24/05/2023 10:23:04,Plantacion,0,Entre 0.10 y 0.40 m,Mediana,No,Sin inclinación,Menor a 5 m,Joven,Sin riesgo de caída,No,Negra,Asfalto,Si,Jujuy y mariano moreno,Mediana,Par,Thevetia,Media Tensión (Con Protección),5.0,3.0,-58.828318408227,-27.474238309461
63,68,81,24/05/2023 10:23:57,Plantacion,0,Menor a 0.10 m,Nivel del Piso,No,Sin inclinación,Menor a 5 m,Joven,Sin riesgo de caída,No,Arenosa,Asfalto,Si,Av patagonia,Parterre Central,Par,Thevetia,Media Tensión (Con Protección),4.0,0.0,-58.83035511709001,-27.491251289027
64,69,82,24/05/2023 10:27:33,Plantacion,0,Menor a 0.10 m,Sin Cazoleta,No,Sin inclinación,Menor a 5 m,Joven,Sin riesgo de caída,No,Arenosa,Asfalto,Si,Av patagonia,Parterre Central,Par,Thevetia,Media Tensión (Con Protección),4.0,0.0,-58.830492373084994,-27.49111376588
65,70,83,24/05/2023 10:30:25,Plantacion,0,Menor a 0.10 m,Sin Cazoleta,No,Sin inclinación,Menor a 5 m,Joven,Sin riesgo de caída,No,Arenosa,Asfalto,Si,Av patagonia,Parterre Central,Par,Thevetia,Media Tensión (Con Protección),4.0,0.0,-58.83064285133101,-27.490990046941004
66,71,84,24/05/2023 10:33:55,Plantacion,0,Menor a 0.10 m,Sin Cazoleta,No,Sin inclinación,Menor a 5 m,Joven,Sin riesgo de caída,No,Arenosa,Asfalto,Si,Av patagonia,Parterre Central,Par,Thevetia,Media Tensión (Con Protección),4.0,0.0,-58.83075551520601,-27.490902755316
67,72,85,24/05/2023 10:36:04,Plantacion,0,Menor a 0.10 m,Sin Cazoleta,No,Sin inclinación,Menor a 5 m,Joven,Sin riesgo de caída,No,Arenosa,Asfalto,Si,Av patagonia,Parterre Central,Par,Thevetia,Media Tensión (Con Protección),4.0,0.0,-58.830567241637,-27.491026351734003
68,73,86,24/05/2023 10:38:37,Plantacion,0,Menor a 0.10 m,Sin Cazoleta,No,Sin inclinación,Menor a 5 m,Joven,Sin riesgo de caída,No,Arenosa,Asfalto,Si,Av patagonia,Parterre Central,Par,Thevetia,Media Tensión (Con Protección),4.0,0.0,-58.830693007588,-27.490936401917
69,74,87,24/05/2023 10:40:33,Plantacion,0,Menor a 0.10 m,Nivel del Piso,No,Sin inclinación,Menor a 5 m,Joven,Sin riesgo de caída,Considerable,Arenosa,Asfalto,Si,Av patagonia,Parterre Central,Par,Thevetia,Media Tensión (Con Protección),4.0,0.0,-58.830433374819,-27.491137477617
70,77,90,29/05/2023 8:33:01,Plantacion,0,Entre 0.10 y 0.40 m,Sin Cazoleta,No,Sin inclinación,Menor a 5 m,Joven,Sin riesgo de caída,No,Negra,Ripio,No,Calle 212,Mediana,Impar,Thevetia,Alta tensión (Con Protección),7.0,3.0,-58.826954561529,-27.50530173663
71,80,93,29/05/2023 10:20:14,Plantacion,0,Entre 0.10 y 0.40 m,Sin Cazoleta,No,Sin inclinación,Menor a 5 m,Joven,Sin riesgo de caída,No,Negra,Asfalto,No,Av. Teniente ibañes 1700,Chica,Par,Pata de Buey,Alta tensión (Con Protección),4.0,3.0,-58.831544699452,-27.484842120026
72,84,97,29/05/2023 11:24:50,Plantacion,0,Entre 0.10 y 0.40 m,Sobre nivel,No,Sin inclinación,Menor a 5 m,Joven,Sin riesgo de caída,No,Negra,Asfalto,Si,Av. Teniente ibañes 1694,Mediana,Par,Paraíso,Media Tensión (Sin Protección),10.0,3.0,-58.831751048902,-27.485168397019
73,85,98,29/05/2023 11:32:30,Plantacion,0,Entre 0.10 y 0.40 m,Sin Cazoleta,No,Sin inclinación,Menor a 5 m,Joven,Sin riesgo de caída,No,Negra,Asfalto,Si,Cundom 1653,Mediana,Impar,Paraíso,Media Tensión (Con Protección),3.0,3.0,-58.831656271423,-27.485535054307
74,89,102,30/05/2023 9:01:13,Plantacion,0,Menor a 0.10 m,Sin Cazoleta,No,Sin inclinación,Menor a 5 m,Joven,Sin riesgo de caída,No,Arenosa,Asfalto,Si,Perugorria 1151,Chica,Impar,Thevetia,Media Tensión (Con Protección),3.0,2.0,-58.83826458047301,-27.484027948892
75,90,103,30/05/2023 9:20:44,Plantacion,0,Menor a 0.10 m,Chica,No,Sin inclinación,Menor a 5 m,Joven,Sin riesgo de caída,No,Arenosa,Asfalto,Si,Guastavino 2257,Chica,Impar,Thevetia,Preensamblado,3.0,2.0,-58.844067979809,-27.482915637292
76,91,104,30/05/2023 9:23:23,Plantacion,0,Entre 0.10 y 0.40 m,Sin Cazoleta,No,Sin inclinación,Menor a 5 m,Joven,Sin riesgo de caída,No,Negra,Ripio,No,Punta ñaro esq. Bella vista,Chica,Par,Paraíso,Ninguno,20.0,3.0,-58.781837221146,-27.442918521678
77,92,105,30/05/2023 9:30:54,Plantacion,0,Menor a 0.10 m,Nivel del Piso,No,Sin inclinación,Menor a 5 m,Joven,Arbol parasitado (con especies vegetales),No,Arenosa,Asfalto,Si,Guastavino 2257,Chica,Par,Pata de Buey,Preensamblado,4.0,2.0,-58.844098624547,-27.482611452544
78,93,106,30/05/2023 9:31:06,Plantacion,0,Entre 0.10 y 0.40 m,Sin Cazoleta,No,Sin inclinación,Menor a 5 m,Joven,Sin riesgo de caída,No,Negra,Ripio,No,Bella vista esq. Punta ñaro,Chica,Par,Paraíso,Media Tensión (Con Protección),10.0,2.0,-58.781965784553,-27.44297414708
79,94,107,30/05/2023 9:33:58,Plantacion,0,Menor a 0.10 m,Chica,No,Sin inclinación,Menor a 5 m,Joven,Arbol parasitado (con especies vegetales),No,Arenosa,Asfalto,Si,Guastavino 2257,Chica,Par,Pata de Buey,Preensamblado,4.0,2.0,-58.844125133986,-27.482705888575005
80,96,109,30/05/2023 10:08:14,Plantacion,0,Menor a 0.10 m,Chica,No,Sin inclinación,Menor a 5 m,Joven,Arbol parasitado (con especies vegetales),No,Arenosa,Asfalto,Si,Pje 1 de mayo,Chica,Par,Pata de Buey,Preensamblado,4.0,2.0,-58.837314048368,-27.488742348438
81,97,110,30/05/2023 10:15:04,Plantacion,0,Menor a 0.10 m,Chica,No,Sin inclinación,Menor a 5 m,Joven,Arbol parasitado (con especies vegetales),No,Arenosa,Asfalto,Si,Pje 1 de mayo 2630,Chica,Par,Paraíso,Preensamblado,4.0,2.0,-58.83722982882199,-27.488350626918
82,98,111,30/05/2023 10:19:12,Plantacion,0,Menor a 0.10 m,Chica,No,Sin inclinación,Menor a 5 m,Joven,Arbol parasitado (con especies vegetales),No,Arenosa,Asfalto,Si,Pje 1 de mayo 2630,Chica,Par,Paraíso,Preensamblado,4.0,2.0,-58.837201674537994,-27.488227910399
83,100,113,30/05/2023 11:00:46,Plantacion,0,Menor a 0.10 m,Chica,No,Sin inclinación,Menor a 5 m,Joven,Arbol parasitado (con especies vegetales),No,Arenosa,Asfalto,Si,Chubut 1860,Chica,Par,Thevetia,Preensamblado,6.0,2.0,-58.829322229258,-27.489669922124
84,101,114,30/05/2023 11:24:32,Plantacion,0,Menor a 0.10 m,Chica,No,Sin inclinación,Menor a 5 m,Joven,Sin riesgo de caída,No,Arenosa,Asfalto,Si,Chubut 1968,Chica,Par,Thevetia,Preensamblado,4.0,2.0,-58.82810098473799,-27.489831722677
85,53,66,24/05/2023 8:50:19,Plantacion,0,Entre 0.10 y 0.40 m,Mediana,No,Sin inclinación,Menor a 5 m,Joven,Sin riesgo de caída,No,Negra,Asfalto,Si,Bolivar 1334,Mediana,Par,Pata de Buey,Subterraneo,4.0,3.0,-58.83398850670599,-27.471224140953
86,75,88,24/05/2023 10:49:17,Plantacion,0,Entre 0.10 y 0.40 m,Sin Cazoleta,No,Sin inclinación,Menor a 5 m,Joven,Sin riesgo de caída,No,Negra,Asfalto,Si,San lorenzo 1524,Mediana,Par,Pata de Buey,Media Tensión (Con Protección),4.0,3.0,-58.832727502692,-27.475128673511
87,76,89,29/05/2023 8:29:20,Plantacion,0,Entre 0.10 y 0.40 m,Sin Cazoleta,No,Sin inclinación,Menor a 5 m,Joven,Sin riesgo de caída,No,Negra,Ripio,No,Calle 212,Mediana,Impar,Pata de Buey,Alta tensión (Con Protección),4.0,3.0,-58.826800131419006,-27.505334118506
88,79,92,29/05/2023 10:15:23,Plantacion,0,Entre 0.10 y 0.40 m,Sin Cazoleta,No,Sin inclinación,Menor a 5 m,Joven,Sin riesgo de caída,No,Negra,Asfalto,No,Av. Sarmiento 2426,Parterre Central,Impar,Jacarandá,Media Tensión (Con Protección),4.0,12.0,-58.83110454135299,-27.485181827079
89,78,91,29/05/2023 9:42:42,Plantacion,0,Entre 0.10 y 0.40 m,Sin Cazoleta,No,Sin inclinación,Menor a 5 m,Joven,Sin riesgo de caída,No,Negra,Asfalto,No,Av. Sarmiento 2288,Chica,Par,Paraíso,Media Tensión (Con Protección),4.0,3.0,-58.831258992371005,-27.484473553593
90,81,94,29/05/2023 10:24:20,Plantacion,0,Entre 0.10 y 0.40 m,Sin Cazoleta,No,Sin inclinación,Menor a 5 m,Joven,Sin riesgo de caída,No,Negra,Asfalto,No,Av. Sarmiento 2287,Chica,Impar,Thevetia,Media Tensión (Con Protección),4.0,3.0,-58.830806045202,-27.484351259942
91,82,95,29/05/2023 10:34:08,Plantacion,0,Entre 0.10 y 0.40 m,Sobre nivel,No,Sin inclinación,Menor a 5 m,Joven,Sin riesgo de caída,No,Negra,Asfalto,Si,Av. Sarmiento 2425,Grande,Impar,Pata de Buey,Alta tensión (Con Protección),18.0,2.0,-58.830872206178,-27.485166725818
92,86,99,29/05/2023 11:45:41,Plantacion,0,Entre 0.10 y 0.40 m,Sin Cazoleta,No,Sin inclinación,Menor a 5 m,Joven,Sin riesgo de caída,No,Negra,Asfalto,Si,Av. Sarmiento,Parterre Central,Impar,Pata de Buey,Subterraneo,4.0,20.0,-58.83079358428501,-27.487017665104
93,83,96,29/05/2023 10:56:55,Plantacion,0,Entre 0.10 y 0.40 m,Sobre nivel,No,Sin inclinación,Menor a 5 m,Joven,Sin riesgo de caída,No,Negra,Asfalto,Si,Av. Teniente ibañes 1730,Mediana,Par,Thevetia,Media Tensión (Con Protección),18.0,3.0,-58.830151732913,-27.484767317861
94,87,100,29/05/2023 11:52:05,Plantacion,0,Entre 0.10 y 0.40 m,Sin Cazoleta,No,Sin inclinación,Menor a 5 m,Joven,Sin riesgo de caída,No,Negra,Asfalto,Si,Av. Sarmiento 2783,Parterre Central,Impar,Paraíso,Subterraneo,5.0,20.0,-58.830861131304,-27.489624030059
95,88,101,29/05/2023 12:00:23,Plantacion,0,Entre 0.10 y 0.40 m,Sin Cazoleta,No,Sin inclinación,Menor a 5 m,Joven,Sin riesgo de caída,No,Negra,Asfalto,Si,Av. Sarmiento 2700,Parterre Central,Par,Thevetia,Subterraneo,5.0,20.0,-58.83078199861101,-27.489973699905
96,95,108,30/05/2023 9:52:35,Plantacion,0,Entre 0.10 y 0.40 m,Nivel del Piso,No,Sin inclinación,Menor a 5 m,Joven,Sin riesgo de caída,No,Negra,Asfalto,Si,Las margarita esq. Caá cati,Grande,Impar,Pata de Buey,Media Tensión (Con Protección),3.0,3.0,-58.783406679676,-27.444230135367
97,99,112,30/05/2023 10:42:30,Plantacion,0,Entre 0.10 y 0.40 m,Sin Cazoleta,No,Sin inclinación,Menor a 5 m,Joven,Sin riesgo de caída,No,Limosa,Ripio,No,Caá cati,Grande,Par,Jacarandá,Media Tensión (Con Protección),5.0,0.0,-58.78502198472,-27.444419991365
98,102,115,30/05/2023 11:26:44,Plantacion,0,Menor a 0.10 m,Chica,No,Sin inclinación,Menor a 5 m,Joven,Sin riesgo de caída,No,Arenosa,Asfalto,Si,Chubut 1968,Chica,Par,Thevetia,Preensamblado,4.0,2.0,-58.827954324525,-27.489824229139
99,103,116,30/05/2023 11:56:43,Plantacion,0,Menor a 0.10 m,Chica,No,Sin inclinación,Menor a 5 m,Joven,Sin riesgo de caída,Considerable,Arenosa,Asfalto,Si,Av Jose R vidal 2909,Mediana,Impar,Paraíso,Media Tensión (Con Protección),4.0,3.0,-58.84052227471701,-27.490257148613
100,104,117,30/05/2023 11:58:59,Plantacion,0,Menor a 0.10 m,Sin Cazoleta,No,Sin inclinación,Menor a 5 m,Joven,Sin riesgo de caída,No,Arenosa,Asfalto,Si,Av Jose R vidal 2919,Chica,Impar,Paraíso,Media Tensión (Con Protección),4.0,3.0,-58.840539635674006,-27.490311927522
101,105,118,30/05/2023 12:04:03,Plantacion,0,Menor a 0.10 m,Chica,No,Sin inclinación,Menor a 5 m,Joven,Sin riesgo de caída,No,Arenosa,Asfalto,Si,Av Jose R vidal 2934,Chica,Par,Pata de Buey,Preensamblado,0.0,4.0,-58.840624261861,-27.490244377298
102,106,119,30/05/2023 12:06:51,Plantacion,0,Menor a 0.10 m,Sin Cazoleta,No,Sin inclinación,Menor a 5 m,Joven,Arbol parasitado (con especies vegetales),No,Arenosa,Asfalto,Si,Hernan cortes y Jr vidal,Chica,Par,Thevetia,Preensamblado,4.0,2.0,-58.840819824297,-27.489931538154
103,110,123,31/05/2023 10:07:57,Plantacion,0,Entre 0.10 y 0.40 m,Sin Cazoleta,No,Sin inclinación,Menor a 5 m,Joven,Sin riesgo de caída,No,Negra,Asfalto,Si,Adolfo mors 160,Grande,Par,Thevetia,Alta tensión (Con Protección),2.0,5.0,-58.77769621417201,-27.448818208068
104,111,124,31/05/2023 10:13:25,Plantacion,0,Entre 0.10 y 0.40 m,Sin Cazoleta,No,Sin inclinación,Menor a 5 m,Joven,Sin riesgo de caída,Considerable,Negra,Asfalto,Si,Adolfo mors,Grande,Par,Thevetia,Alta tensión (Con Protección),7.0,4.0,-58.777891350903005,-27.448937810953
105,115,128,1/06/2023 12:14:25,Plantacion,0,Entre 0.10 y 0.40 m,Sin Cazoleta,No,Sin inclinación,Menor a 5 m,Joven,Sin riesgo de caída,No,Negra,Asfalto,Si,Yufre 3297,Chica,Impar,Pata de Buey,Media Tensión (Con Protección),2.0,3.0,-58.809518692335,-27.506403264708
106,119,132,2/06/2023 10:08:12,Plantacion,0,Entre 0.10 y 0.40 m,Chica,Alto,Sin inclinación,Menor a 5 m,Joven,Sin riesgo de caída,No,Negra,Asfalto,Si,250 viv. Mz. E cs. 2,Chica,Par,Pata de Buey,Alta tensión (Con Protección),2.0,3.0,-58.76993927573,-27.456623200284
107,120,133,2/06/2023 10:34:20,Plantacion,0,Entre 0.10 y 0.40 m,Sin Cazoleta,No,Sin inclinación,Menor a 5 m,Joven,Sin riesgo de caída,No,Negra,Ripio,No,Los coco 102,Chica,Par,Pata de Buey,Media Tensión (Con Protección),4.0,3.0,-58.788077477838,-27.462236213717
108,121,134,2/06/2023 11:02:29,Plantacion,0,Entre 0.10 y 0.40 m,Sin Cazoleta,No,Sin inclinación,Menor a 5 m,Joven,Sin riesgo de caída,No,Negra,Asfalto,Si,J.R. Fernandez,Mediana,Impar,Pata de Buey,Media Tensión (Con Protección),2.0,5.0,-58.78783072346701,-27.463854456702
109,122,135,5/06/2023 9:50:25,Plantacion,0,Entre 0.10 y 0.40 m,Sin Cazoleta,No,Sin inclinación,Menor a 5 m,Joven,Sin riesgo de caída,Considerable,Arenosa,Asfalto,Si,Av. Paisandu,Parterre Central,Par,Thevetia,Alta tensión (Con Protección),3.0,18.0,-58.82573684482299,-27.500746647086
110,123,136,5/06/2023 10:10:44,Plantacion,0,Entre 0.10 y 0.40 m,Chica,No,Sin inclinación,Menor a 5 m,Joven,Sin riesgo de caída,No,Arenosa,Asfalto,Si,Av. Paisandu,Parterre Central,Impar,Thevetia,Ninguno,4.0,18.0,-58.826287413874,-27.508260528606
111,124,137,5/06/2023 10:27:48,Plantacion,0,Entre 0.10 y 0.40 m,Sin Cazoleta,No,Sin inclinación,Menor a 5 m,Joven,Sin riesgo de caída,No,Arenosa,Asfalto,Si,Av ibera 2074,Grande,Par,Paraíso,Alta tensión (Con Protección),3.0,5.0,-58.83239216497601,-27.498957269192
112,125,138,5/06/2023 10:48:00,Plantacion,0,Entre 0.10 y 0.40 m,Sin Cazoleta,No,Sin inclinación,Menor a 5 m,Joven,Sin riesgo de caída,No,Arenosa,Asfalto,Si,70 viv. Mz 211 c 22,Grande,Par,Pata de Buey,Media Tensión (Con Protección),10.0,4.0,-58.796237144648,-27.495493048818
113,126,139,5/06/2023 11:16:27,Plantacion,0,Entre 0.10 y 0.40 m,Sin Cazoleta,No,Sin inclinación,Mayor a 15 m,Joven,Sin riesgo de caída,No,Arenosa,Asfalto,Si,Av. Montenegro,Parterre Central,Impar,Pata de Buey,Subterraneo,5.0,20.0,-58.796419819631,-27.495329214106
114,127,140,14/06/2023 17:48:39,Plantacion,0,Menor a 0.10 m,Nivel del Piso,No,Sin inclinación,Menor a 5 m,Joven,Arbol parasitado (con especies vegetales),No,Arenosa,Asfalto,Si,Av blas m riera al 200,Grande,Par,Jacarandá,Alta tensión (Con Protección),4.0,0.0,-58.80809611762899,-27.526222794274
115,130,143,21/06/2023 8:47:13,Plantacion,0,Entre 0.10 y 0.40 m,Sin Cazoleta,No,Sin inclinación,Menor a 5 m,Joven,Sin riesgo de caída,No,Negra,Asfalto,Si,Inglaterra y cartagena,Chica,Par,Pata de Buey,Preensamblado,10.0,3.0,-58.803739391037006,-27.494755504607
116,131,144,21/06/2023 9:24:40,Plantacion,0,Entre 0.10 y 0.40 m,Sin Cazoleta,No,Sin inclinación,Menor a 5 m,Joven,Sin riesgo de caída,No,Negra,Asfalto,No,Valencia 05,Grande,Impar,Pata de Buey,Ninguno,6.0,3.0,-58.788565227174,-27.460557688526
117,132,145,21/06/2023 10:03:17,Plantacion,0,Entre 0.10 y 0.40 m,Sin Cazoleta,No,Sin inclinación,Menor a 5 m,Joven,Sin riesgo de caída,No,Limosa,Asfalto,Si,Las margaritas 1450,Mediana,Par,Pata de Buey,Media Tensión (Con Protección),3.0,4.0,-58.783252236794006,-27.446030889536004
118,133,146,21/06/2023 10:24:17,Plantacion,0,Entre 0.10 y 0.40 m,Sin Cazoleta,No,Sin inclinación,Menor a 5 m,Añoso,Arbol parasitado (con especies vegetales),No,Negra,Tierra,No,Pasaje ( entre los crisaltemos y las camelia ),Mediana,Par,Pata de Buey,Preensamblado,3.0,3.0,-58.77485422659701,-27.457595322613
119,134,147,22/06/2023 9:57:17,Plantacion,0,Entre 0.10 y 0.40 m,Sin Cazoleta,No,Sin inclinación,Menor a 5 m,Joven,Sin riesgo de caída,No,Negra,Asfalto,No,P.N. soto 1870,Mediana,Par,Pata de Buey,Media Tensión (Con Protección),30.0,3.0,-58.827269286513,-27.479945802195
120,135,148,22/06/2023 10:18:05,Plantacion,0,Entre 0.10 y 0.40 m,Sobre nivel,No,Sin inclinación,Menor a 5 m,Joven,Sin riesgo de caída,No,Negra,Asfalto,No,Gral paz 2314,Mediana,Par,Pata de Buey,Media Tensión (Sin Protección),3.0,4.0,-58.822344399974,-27.480160946793
121,136,149,23/06/2023 10:24:41,Plantacion,0,Entre 0.10 y 0.40 m,Sin Cazoleta,No,Sin inclinación,Menor a 5 m,Joven,Sin riesgo de caída,No,Negra,Ripio,No,Pje. Barranquera 2825,Mediana,Impar,Pata de Buey,Preensamblado,3.0,3.0,-58.848152214301,-27.488300675226004
122,137,150,23/06/2023 10:58:59,Plantacion,0,Entre 0.10 y 0.40 m,Sin Cazoleta,No,Sin inclinación,Menor a 5 m,Joven,Sin riesgo de caída,No,Arenosa,Asfalto,Si,Pago largo 2172,Mediana,Par,Pata de Buey,Ninguno,3.0,2.0,-58.85051567261001,-27.480599949579
123,141,154,27/06/2023 9:15:59,Plantacion,0,Entre 0.10 y 0.40 m,Sin Cazoleta,No,Sin inclinación,Menor a 5 m,Joven,Sin riesgo de caída,No,Negra,Ripio,No,B° quintana. Calle 506 y pasaje 531,Grande,Par,Paraíso,Preensamblado,7.0,3.0,-58.794546307504,-27.523560964493
124,144,157,28/06/2023 8:56:18,Plantacion,0,Entre 0.10 y 0.40 m,Sin Cazoleta,No,Sin inclinación,Menor a 5 m,Joven,Sin riesgo de caída,No,Negra,Ripio,No,Julio verne y roberto leyes,Grande,Impar,Pata de Buey,Media Tensión (Con Protección),6.0,4.0,-58.77904082874401,-27.509089844902
125,146,159,28/06/2023 11:41:52,Plantacion,0,Entre 0.10 y 0.40 m,Chica,No,Sin inclinación,Menor a 5 m,Añoso,Sin riesgo de caída,No,Arenosa,Asfalto,No,Rioja 1177,Mediana,Impar,Paraíso,Media Tensión (Con Protección),10.0,3.0,-58.838077116191,-27.470145402774
126,147,160,28/06/2023 11:51:22,Plantacion,0,Entre 0.10 y 0.40 m,Sin Cazoleta,No,Sin inclinación,Menor a 5 m,Joven,Sin riesgo de caída,No,Arenosa,Ripio,No,Fragata 1993,Chica,Impar,Paraíso,Preensamblado,20.0,3.0,-58.821812214565,-27.48251400833
127,149,162,3/07/2023 9:05:54,Plantacion,0,Entre 0.10 y 0.40 m,Sin Cazoleta,No,Sin inclinación,Menor a 5 m,Joven,Sin riesgo de caída,No,Negra,Asfalto,Si,"Serctor M, casa 136, 216 viv",Chica,Par,Pata de Buey,Preensamblado,8.0,3.0,-58.833377388513,-27.49796649159
128,150,163,3/07/2023 9:21:38,Plantacion,0,Entre 0.10 y 0.40 m,Sin Cazoleta,No,Sin inclinación,Menor a 5 m,Joven,Sin riesgo de caída,No,Negra,Asfalto,Si,Av. Cuarto centenario 3683,Mediana,Impar,Pata de Buey,Preensamblado,15.0,5.0,-58.838005498484,-27.497686928501
129,151,164,3/07/2023 9:36:55,Plantacion,0,Entre 0.10 y 0.40 m,Sin Cazoleta,No,Sin inclinación,Menor a 5 m,Joven,Sin riesgo de caída,No,Negra,Asfalto,Si,Taragui 1154,Mediana,Par,Pata de Buey,Media Tensión (Con Protección),6.0,3.0,-58.83940240695299,-27.495527252446
130,152,165,3/07/2023 10:52:49,Plantacion,0,Entre 0.10 y 0.40 m,Sin Cazoleta,No,Sin inclinación,Menor a 5 m,Joven,Sin riesgo de caída,No,Negra,Ripio,No,Sebastian gaboto 3179,Chica,Impar,Chivato,Media Tensión (Con Protección),5.0,3.0,-58.842624548157,-27.492219498107
131,108,121,31/05/2023 9:22:30,Plantacion,0,Entre 0.10 y 0.40 m,Sin Cazoleta,No,Sin inclinación,Menor a 5 m,Joven,Sin riesgo de caída,No,Arenosa,Asfalto,No,90 viv. Csa 38,Chica,Par,Pata de Buey,Preensamblado,3.0,2.0,-58.784626068448,-27.448557797135
132,109,122,31/05/2023 9:43:40,Plantacion,0,Entre 0.10 y 0.40 m,Sin Cazoleta,No,Sin inclinación,Menor a 5 m,Joven,Sin riesgo de caída,No,Negra,Asfalto,Si,Las violestas 700,Grande,Par,Pata de Buey,Alta tensión (Con Protección),3.0,4.0,-58.779637895955,-27.449328264201
133,112,125,1/06/2023 10:44:37,Plantacion,0,Entre 0.10 y 0.40 m,Sin Cazoleta,No,Sin inclinación,Menor a 5 m,Joven,Sin riesgo de caída,No,Limosa,Asfalto,Si,Av. Pedro montenegro 160,Parterre Central,Par,Pata de Buey,Ninguno,3.0,15.0,-58.80304661531101,-27.525535742875
134,113,126,1/06/2023 10:50:30,Plantacion,0,Entre 0.10 y 0.40 m,Sin Cazoleta,No,Sin inclinación,Menor a 5 m,Joven,Sin riesgo de caída,No,Limosa,Asfalto,Si,Montenegro 150,Parterre Central,Par,Pata de Buey,Ninguno,3.0,16.0,-58.80276093273,-27.524670033659
135,114,127,1/06/2023 10:59:02,Plantacion,0,Entre 0.10 y 0.40 m,Sin Cazoleta,No,Sin inclinación,Menor a 5 m,Joven,Sin riesgo de caída,No,Limosa,Asfalto,Si,Montenego 100,Parterre Central,Impar,Pata de Buey,Ninguno,3.0,16.0,-58.80254466152001,-27.523423779724
136,116,129,2/06/2023 9:18:03,Plantacion,0,Entre 0.10 y 0.40 m,Sin Cazoleta,No,Sin inclinación,Menor a 5 m,Joven,Sin riesgo de caída,No,Negra,Ripio,No,Rio dulce 5750,Mediana,Par,Pata de Buey,Media Tensión (Con Protección),4.0,4.0,-58.78242251087,-27.444955030088
137,117,130,2/06/2023 9:41:59,Plantacion,0,Entre 0.10 y 0.40 m,Sin Cazoleta,No,Sin inclinación,Menor a 5 m,Joven,Sin riesgo de caída,No,Negra,Asfalto,Si,Morales esquina N. Ciguersa,Mediana,Par,Pata de Buey,Ninguno,4.0,3.0,-58.781440047796,-27.447278638668
138,118,131,2/06/2023 9:51:01,Plantacion,0,Entre 0.10 y 0.40 m,Sin Cazoleta,No,Sin inclinación,Menor a 5 m,Joven,Sin riesgo de caída,No,Negra,Ripio,No,Los gladiolos 434,Mediana,Par,Pata de Buey,Preensamblado,4.0,2.0,-58.780277530163005,-27.457062300920004
139,128,141,14/06/2023 17:59:27,Plantacion,0,Entre 0.10 y 0.40 m,Sin Cazoleta,No,Sin inclinación,Menor a 5 m,Joven,Sin riesgo de caída,No,Limosa,Asfalto,Si,Av. Riera y Av. Argentinos rojas al 300,Parterre Central,Par,Ingá,Alta tensión (Con Protección),5.0,20.0,-58.808051989202006,-27.525522546314
140,129,142,14/06/2023 18:14:51,Plantacion,0,Entre 0.10 y 0.40 m,Sin Cazoleta,No,Sin inclinación,Menor a 5 m,Joven,Sin riesgo de caída,No,Limosa,Asfalto,Si,Av. Riera y av. Argentina rojas,Parterre Central,Par,Ibirá Pitá,Alta tensión (Con Protección),5.0,20.0,-58.80750119955001,-27.522804701083
141,138,151,26/06/2023 9:38:06,Plantacion,0,Entre 0.10 y 0.40 m,Sin Cazoleta,No,Sin inclinación,Menor a 5 m,Joven,Sin riesgo de caída,No,Negra,Tierra,Si,Peatonal N°1,Chica,Impar,Pata de Buey,Media Tensión (Con Protección),3.0,2.0,-58.837282415805,-27.486020484661
142,139,152,26/06/2023 9:49:54,Plantacion,0,Entre 0.10 y 0.40 m,Sin Cazoleta,No,Sin inclinación,Menor a 5 m,Joven,Sin riesgo de caída,No,Negra,Tierra,Si,Pasaje N°1 BARRIO pio x,Chica,Par,Paraíso,Media Tensión (Con Protección),3.0,3.0,-58.837508894358,-27.485659977629
143,140,153,27/06/2023 8:37:26,Plantacion,0,Entre 0.10 y 0.40 m,Sin Cazoleta,No,Sin inclinación,Menor a 5 m,Joven,Sin riesgo de caída,No,Negra,Asfalto,Si,Tacuari y guemes,Mediana,Par,Paraíso,Media Tensión (Sin Protección),7.0,4.0,-58.80644212943399,-27.482128747174
144,142,155,27/06/2023 10:00:27,Plantacion,0,Entre 0.10 y 0.40 m,Sin Cazoleta,No,Sin inclinación,Menor a 5 m,Joven,Sin riesgo de caída,No,Negra,Ripio,Si,Serrando y meza B pirayui,Mediana,Impar,Pata de Buey,Alta tensión (Con Protección),5.0,3.0,-58.78003234641,-27.523183695836
145,143,156,28/06/2023 8:24:26,Plantacion,0,Entre 0.10 y 0.40 m,Chica,No,Sin inclinación,Menor a 5 m,Joven,Sin riesgo de caída,No,Negra,Tierra,No,Julio verne y rafael,Mediana,Par,Paraíso,Alta tensión (Con Protección),4.0,3.0,-58.78346105961901,-27.508635549576
146,145,158,28/06/2023 10:22:44,Plantacion,0,Entre 0.10 y 0.40 m,Mediana,No,Sin inclinación,Menor a 5 m,Joven,Sin riesgo de caída,No,Negra,Asfalto,Si,Moreno 655,Mediana,Impar,Pata de Buey,Media Tensión (Con Protección),3.0,3.0,-58.842695020168,-27.472889910039
147,148,161,28/06/2023 12:11:08,Plantacion,0,Entre 0.10 y 0.40 m,Sin Cazoleta,No,Sin inclinación,Menor a 5 m,Joven,Sin riesgo de caída,No,Arenosa,Asfalto,Si,Guemes 1864,Mediana,Par,Paraíso,Media Tensión (Con Protección),3.0,4.0,-58.80834330774499,-27.483653000207
148,153,166,4/07/2023 10:07:21,Plantacion,0,Entre 0.10 y 0.40 m,Chica,No,Sin inclinación,Menor a 5 m,Joven,Sin riesgo de caída,No,Arenosa,Asfalto,Si,San lorenzo y quintana,Mediana,Impar,Pata de Buey,Media Tensión (Con Protección),4.0,3.0,-58.83129905970299,-27.463332506892
149,154,167,4/07/2023 10:16:06,Plantacion,0,Entre 0.10 y 0.40 m,Mediana,No,Sin inclinación,Menor a 5 m,Joven,Sin riesgo de caída,No,Negra,Asfalto,Si,Quintana 1481,Chica,Impar,Pata de Buey,Alta tensión (Con Protección),5.0,3.0,-58.831559257649,-27.463342621693
150,155,168,4/07/2023 11:01:44,Plantacion,0,Entre 0.10 y 0.40 m,Nivel del Piso,No,Sin inclinación,Menor a 5 m,Joven,Sin riesgo de caída,No,Negra,Asfalto,Si,Catamarca 512,Chica,Par,Pata de Buey,Ninguno,3.0,3.0,-58.83275743690601,-27.464122411331
151,156,169,4/07/2023 11:09:14,Plantacion,0,Entre 0.10 y 0.40 m,Chica,No,Sin inclinación,Menor a 5 m,Joven,Sin riesgo de caída,No,Arenosa,Asfalto,Si,25 de mayo 1415,Mediana,Impar,Pata de Buey,Ninguno,3.0,4.0,-58.831858929602,-27.464836906914
152,159,172,5/07/2023 10:42:06,Plantacion,0,Entre 0.10 y 0.40 m,Nivel del Piso,No,Sin inclinación,Menor a 5 m,Joven,Sin riesgo de caída,No,Arenosa,Asfalto,Si,Santa cruz  1732,Mediana,Par,Pata de Buey,Ninguno,10.0,4.0,-58.829820104963005,-27.492020112724
153,160,173,5/07/2023 10:45:40,Plantacion,0,Entre 0.10 y 0.40 m,Nivel del Piso,No,Sin inclinación,Menor a 5 m,Joven,Sin riesgo de caída,No,Arenosa,Asfalto,Si,Santa cruz 1762,Mediana,Par,Pata de Buey,Ninguno,10.0,4.0,-58.829862720807,-27.492277740593
154,161,174,5/07/2023 10:49:00,Plantacion,0,Entre 0.10 y 0.40 m,Chica,No,Sin inclinación,Menor a 5 m,Joven,Sin riesgo de caída,No,Arenosa,Asfalto,Si,Santa cruz 1771,Grande,Impar,Pata de Buey,Preensamblado,3.0,5.0,-58.829634211378995,-27.492632339004
155,163,176,5/07/2023 11:00:43,Extraccion,0,Entre 0.10 y 0.40 m,Nivel del Piso,No,Sin inclinación,Menor a 5 m,Joven,Sin riesgo de caída,No,Arenosa,Asfalto,Si,Santa cruz y bonastre,Mediana,Par,Pata de Buey,Ninguno,7.0,4.0,-58.830187035462,-27.493237953386
156,165,178,10/07/2023 10:13:09,Plantacion,0,Entre 0.10 y 0.40 m,Sin Cazoleta,No,Sin inclinación,Menor a 5 m,Joven,Sin riesgo de caída,No,Arenosa,Ripio,No,La cruz 3123,Grande,Impar,Paraíso,Media Tensión (Con Protección),3.0,4.0,-58.809217111834,-27.504121020805
157,166,179,10/07/2023 10:43:09,Plantacion,0,Entre 0.10 y 0.40 m,Sin Cazoleta,No,Sin inclinación,Menor a 5 m,Joven,Sin riesgo de caída,No,Arenosa,Tierra,Si,Los talguelches 3150,Chica,Impar,Paraíso,Preensamblado,4.0,4.0,-58.81404854731901,-27.501584955692
158,168,181,11/07/2023 9:58:40,Plantacion,0,Entre 0.10 y 0.40 m,Nivel del Piso,No,Sin inclinación,Menor a 5 m,Joven,Sin riesgo de caída,No,Arenosa,Asfalto,Si,San martin 1327,Mediana,Impar,Pata de Buey,Preensamblado,10.0,3.0,-58.839222576796,-27.471205685469
159,169,182,11/07/2023 10:01:14,Plantacion,0,Entre 0.10 y 0.40 m,Nivel del Piso,No,Sin inclinación,Menor a 5 m,Joven,Sin riesgo de caída,No,Arenosa,Asfalto,Si,San martin 1330,Mediana,Par,Pata de Buey,Preensamblado,15.0,3.0,-58.839597524473,-27.471164056153
160,170,183,11/07/2023 10:17:21,Plantacion,0,Entre 0.10 y 0.40 m,Grande,No,Sin inclinación,Menor a 5 m,Joven,Sin riesgo de caída,No,Arenosa,Asfalto,Si,Belgrano 902,Mediana,Par,Pata de Buey,Preensamblado,5.0,3.0,-58.83927947892601,-27.470833153914
161,171,184,13/07/2023 8:12:44,Plantacion,0,Entre 0.10 y 0.40 m,Sin Cazoleta,No,Leve,Menor a 5 m,Joven,Sin riesgo de caída,No,Arenosa,Asfalto,Si,Av. Cartagena casi resoagli,Grande,Par,Paraíso,Ninguno,3.0,6.0,-58.806551338366,-27.493232214434
162,174,187,13/07/2023 8:53:10,Plantacion,0,Entre 0.10 y 0.40 m,Sin Cazoleta,No,Leve,Menor a 5 m,Joven,Sin riesgo de caída,No,Arenosa,Asfalto,Si,Salta casi mariano moreno,Mediana,Par,Pata de Buey,Preensamblado,4.0,4.0,-58.839554247446,-27.471564850818
163,177,190,13/07/2023 11:39:08,Plantacion,0,Entre 0.10 y 0.40 m,Sin Cazoleta,No,Sin inclinación,Menor a 5 m,Joven,Sin riesgo de caída,No,Arenosa,Asfalto,No,Pasaje gomez 3351,Chica,Impar,Pata de Buey,Ninguno,0.0,2.0,-58.809149083159,-27.472438571853
164,178,191,14/07/2023 8:40:57,Plantacion,0,Entre 0.10 y 0.40 m,Mediana,No,Sin inclinación,Menor a 5 m,Joven,Sin riesgo de caída,No,Arenosa,Asfalto,Si,Baibiene 1911,Mediana,Impar,Pata de Buey,Alta tensión (Con Protección),17.0,4.0,-58.825744420959005,-27.462895794562
165,180,193,24/07/2023 10:03:00,Plantacion,0,Entre 0.10 y 0.40 m,Sin Cazoleta,No,Sin inclinación,Menor a 5 m,Joven,Sin riesgo de caída,No,Arenosa,Tierra,No,Rio miriñay,Mediana,Impar,Ñangapirí,Ninguno,6.0,3.0,-58.812193206468,-27.510683609649
166,181,194,24/07/2023 10:39:07,Plantacion,0,Entre 0.10 y 0.40 m,Sin Cazoleta,No,Sin inclinación,Menor a 5 m,Joven,Sin riesgo de caída,No,Arenosa,Ripio,No,Los atacamas 4800,Chica,Par,Ñangapirí,Preensamblado,10.0,4.0,-58.8096529184,-27.514596910034005
167,186,199,26/07/2023 8:05:45,Plantacion,0,Entre 0.10 y 0.40 m,Sin Cazoleta,No,Sin inclinación,Menor a 5 m,Joven,Sin riesgo de caída,No,Arenosa,Asfalto,Si,Parque mitre,Plaza,Par,Lapacho,Subterraneo,8.0,0.0,-58.82778453929401,-27.461220628283
168,189,202,31/07/2023 9:25:18,Plantacion,0,Entre 0.10 y 0.40 m,Sobre nivel,No,Sin inclinación,Menor a 5 m,Joven,Sin riesgo de caída,No,Arenosa,Asfalto,No,Papin 57,Mediana,Impar,Farolito,Media Tensión (Con Protección),4.0,3.0,-58.821435853443,-27.458885231359
169,191,204,31/07/2023 10:24:37,Plantacion,0,Entre 0.10 y 0.40 m,Chica,Alto,Sin inclinación,Menor a 5 m,Añoso,Sin riesgo de caída,No,Arenosa,Asfalto,Si,Av. Colon 869,Chica,Impar,Chivato,Alta tensión (Con Protección),6.0,4.0,-58.843552508386,-27.488295563259
170,192,205,1/08/2023 11:11:03,Plantacion,0,Entre 0.10 y 0.40 m,Sin Cazoleta,No,Sin inclinación,Menor a 5 m,Joven,Sin riesgo de caída,No,Arenosa,Asfalto,Si,Hernandarias 2567,Chica,Impar,Ñangapirí,Media Tensión (Con Protección),6.0,4.0,-58.84538304654299,-27.49094162336
171,193,206,7/08/2023 10:33:18,Plantacion,0,Entre 0.10 y 0.40 m,Sin Cazoleta,No,Sin inclinación,Menor a 5 m,Joven,Sin riesgo de caída,No,Arenosa,Ripio,No,Los claveles 700,Mediana,Par,Farolito,Media Tensión (Con Protección),3.0,4.0,-58.77568198181801,-27.450357829259
172,194,207,7/08/2023 10:36:45,Plantacion,0,Entre 0.10 y 0.40 m,Sin Cazoleta,No,Sin inclinación,Menor a 5 m,Joven,Sin riesgo de caída,No,Limosa,Ripio,No,Lis claveles 700,Chica,Par,Farolito,Media Tensión (Con Protección),3.0,4.0,-58.775553139787,-27.450456367122005
173,195,208,7/08/2023 10:40:08,Plantacion,0,Entre 0.10 y 0.40 m,Sin Cazoleta,Alto,Sin inclinación,Menor a 5 m,Joven,Sin riesgo de caída,No,Arenosa,Ripio,No,Los claveles al 700,Chica,Par,Farolito,Media Tensión (Con Protección),3.0,4.0,-58.775512145758,-27.450606317688
174,196,209,8/08/2023 8:59:32,Plantacion,0,Entre 0.10 y 0.40 m,Nivel del Piso,No,Sin inclinación,Menor a 5 m,Joven,Sin riesgo de caída,No,Negra,Ripio,No,60 viv. Casa 31,Chica,Impar,Farolito,Ninguno,20.0,2.0,-58.780970015736,-27.453180976485
175,197,210,8/08/2023 10:17:37,Plantacion,0,Entre 0.10 y 0.40 m,Sobre nivel,No,Sin inclinación,Menor a 5 m,Joven,Sin riesgo de caída,No,Arenosa,Asfalto,No,Heredia 4932,Mediana,Par,Pata de Buey,Preensamblado,20.0,3.0,-58.790720317074,-27.472057702602
176,198,211,8/08/2023 10:29:42,Plantacion,0,Entre 0.10 y 0.40 m,Sin Cazoleta,No,Sin inclinación,Menor a 5 m,Joven,Sin riesgo de caída,No,Arenosa,Ripio,No,Luis braile 4855,Mediana,Impar,Pata de Buey,Preensamblado,6.0,3.0,-58.79282607089501,-27.481893134474
177,199,212,8/08/2023 11:16:26,Plantacion,0,Entre 0.10 y 0.40 m,Sin Cazoleta,No,Sin inclinación,Menor a 5 m,Joven,Sin riesgo de caída,No,Limosa,Asfalto,Si,La valle y rio juramento,Mediana,Par,Farolito,Alta tensión (Con Protección),4.0,3.0,-58.799378129037,-27.482931858979
178,200,213,8/08/2023 11:19:17,Plantacion,0,Entre 0.10 y 0.40 m,Sin Cazoleta,No,Sin inclinación,Menor a 5 m,Joven,Sin riesgo de caída,No,Arenosa,Asfalto,Si,La valle y rio juramento,Mediana,Par,Farolito,Alta tensión (Con Protección),4.0,4.0,-58.79930352666499,-27.482941141177
179,201,214,9/08/2023 9:28:03,Plantacion,0,Entre 0.10 y 0.40 m,Sin Cazoleta,No,Sin inclinación,Menor a 5 m,Joven,Sin riesgo de caída,No,Arenosa,Asfalto,No,Angel navea 3677,Mediana,Impar,Farolito,Media Tensión (Con Protección),3.0,4.0,-58.801477322168,-27.463443051877
180,202,215,9/08/2023 9:49:01,Plantacion,0,Entre 0.10 y 0.40 m,Sin Cazoleta,No,Sin inclinación,Menor a 5 m,Joven,Sin riesgo de caída,No,Arenosa,Asfalto,Si,Calle gascon,Mediana,Par,Paraíso,Media Tensión (Con Protección),4.0,4.0,-58.796087380831,-27.485671504492
181,203,216,9/08/2023 9:50:20,Plantacion,0,Entre 0.10 y 0.40 m,Sin Cazoleta,No,Sin inclinación,Menor a 5 m,Joven,Sin riesgo de caída,No,Arenosa,Ripio,Si,Calle gascon,Mediana,Par,Paraíso,Media Tensión (Con Protección),4.0,4.0,-58.796087380831,-27.485671504492
182,204,217,9/08/2023 10:06:26,Plantacion,0,Entre 0.10 y 0.40 m,Sin Cazoleta,No,Sin inclinación,Menor a 5 m,Joven,Sin riesgo de caída,No,Arenosa,Asfalto,Si,Gascon 2025,Chica,Impar,Ñangapirí,Media Tensión (Con Protección),5.0,3.0,-58.796380592019,-27.48608822983
183,205,218,9/08/2023 10:41:00,Plantacion,0,Entre 0.10 y 0.40 m,Sin Cazoleta,No,Sin inclinación,Menor a 5 m,Joven,Sin riesgo de caída,No,Arenosa,Ripio,No,Inglaterra 3849,Mediana,Impar,Ñangapirí,Subterraneo,4.0,4.0,-58.80591734048401,-27.499505793933
184,206,219,9/08/2023 10:47:53,Plantacion,0,Entre 0.10 y 0.40 m,Sin Cazoleta,No,Sin inclinación,Menor a 5 m,Joven,Sin riesgo de caída,No,Arenosa,Ripio,No,Inglaterra 3849,Mediana,Impar,Farolito,Subterraneo,4.0,4.0,-58.805891504657,-27.499552614359
185,158,171,5/07/2023 10:19:56,Plantacion,0,Entre 0.10 y 0.40 m,Sin Cazoleta,No,Sin inclinación,Menor a 5 m,Joven,Sin riesgo de caída,No,Arenosa,Asfalto,Si,AV. SARMIENTO Y AV. PATAGONIA,Parterre Central,Par,Pata de Buey,Subterraneo,3.0,30.0,-58.83071404021101,-27.490992345721
186,162,175,5/07/2023 10:57:03,Extraccion,0,Entre 0.10 y 0.40 m,Nivel del Piso,No,Sin inclinación,Menor a 5 m,Añoso,Sin riesgo de caída,No,Arenosa,Asfalto,Si,Santa cruz 1776,Mediana,Impar,Pata de Buey,Ninguno,10.0,4.0,-58.830041517653,-27.492986349225
187,164,177,10/07/2023 9:23:19,Plantacion,0,Entre 0.10 y 0.40 m,Nivel del Piso,No,Sin inclinación,Menor a 5 m,Joven,Sin riesgo de caída,No,Arenosa,Asfalto,Si,Santa cruz 1525,Chica,Impar,Farolito,Media Tensión (Con Protección),5.0,3.0,-58.833939912668,-27.489212285254
188,167,180,11/07/2023 9:30:57,Plantacion,0,Entre 0.10 y 0.40 m,Mediana,No,Sin inclinación,Menor a 5 m,Joven,Sin riesgo de caída,No,Arenosa,Asfalto,Si,Gbdr. Roca 1021,Mediana,Impar,Lapacho,Subterraneo,7.0,0.0,-58.82280470635399,-27.470690178463
189,172,185,13/07/2023 8:36:03,Plantacion,0,Entre 0.10 y 0.40 m,Sin Cazoleta,No,Sin inclinación,Menor a 5 m,Joven,Sin riesgo de caída,No,Arenosa,Asfalto,Si,Salta y bolivar,Mediana,Par,Pata de Buey,Alta tensión (Con Protección),4.0,5.0,-58.839410482243,-27.469246675314
190,173,186,13/07/2023 8:39:21,Plantacion,0,Entre 0.10 y 0.40 m,Sin Cazoleta,No,Sin inclinación,Menor a 5 m,Joven,Sin riesgo de caída,No,Arenosa,Asfalto,Si,Salta 1126,Mediana,Par,Pata de Buey,Ninguno,6.0,5.0,-58.83942627469601,-27.469784963724
191,182,195,24/07/2023 11:05:01,Plantacion,0,Entre 0.10 y 0.40 m,Sin Cazoleta,No,Sin inclinación,Menor a 5 m,Joven,Sin riesgo de caída,No,Arenosa,Ripio,No,Managua 3622,Mediana,Par,Ñangapirí,Media Tensión (Con Protección),30.0,2.0,-58.8096529184,-27.514596910034005
192,183,196,25/07/2023 10:49:11,Plantacion,0,Entre 0.10 y 0.40 m,Nivel del Piso,No,Sin inclinación,Menor a 5 m,Añoso,Sin riesgo de caída,No,Arenosa,Asfalto,No,Cabeza de vaca sector 4 casa 25 ( virgen de los dolores),Chica,Impar,Ñangapirí,Media Tensión (Con Protección),3.0,2.0,-58.853044623318,-27.489093258224
193,184,197,25/07/2023 12:21:52,Plantacion,0,Entre 0.10 y 0.40 m,Sin Cazoleta,No,Sin inclinación,Menor a 5 m,Joven,Sin riesgo de caída,No,Arenosa,Tierra,Si,Plaza de laguna brava,Plaza,Par,Jacarandá,Subterraneo,5.0,0.0,-58.718398156338,-27.493451404985
194,185,198,26/07/2023 8:03:11,Plantacion,0,Entre 0.10 y 0.40 m,Sin Cazoleta,No,Sin inclinación,Menor a 5 m,Joven,Sin riesgo de caída,No,Arenosa,Asfalto,Si,Parque mitre,Plaza,Par,Ibirá Pitá,Subterraneo,6.0,0.0,-58.82778453929401,-27.461220628283
195,207,220,9/08/2023 11:11:21,Plantacion,0,Entre 0.10 y 0.40 m,Sin Cazoleta,No,Sin inclinación,Menor a 5 m,Joven,Sin riesgo de caída,No,Arenosa,Ripio,No,215 viv. Sec. 13 cs. 27 por calle gascon,Chica,Impar,Ñangapirí,Preensamblado,5.0,4.0,-58.797344978392,-27.49472084135
196,208,221,10/08/2023 9:12:08,Plantacion,0,Entre 0.10 y 0.40 m,Nivel del Piso,No,Sin inclinación,Menor a 5 m,Joven,Sin riesgo de caída,No,Arenosa,Asfalto,Si,Santa fe y hipolito yrigoyen,Mediana,Impar,Farolito,Subterraneo,6.0,4.0,-58.830548410729,-27.469468758828
197,209,222,10/08/2023 9:48:58,Plantacion,0,Entre 0.10 y 0.40 m,Sin Cazoleta,No,Sin inclinación,Menor a 5 m,Joven,Sin riesgo de caída,No,Arenosa,Asfalto,Si,Ramon carrillo 1452,Mediana,Par,Farolito,Media Tensión (Con Protección),3.0,4.0,-58.83306870827,-27.476761680599
198,210,223,10/08/2023 9:52:23,Plantacion,0,Entre 0.10 y 0.40 m,Chica,No,Sin inclinación,Menor a 5 m,Joven,Sin riesgo de caída,No,Arenosa,Asfalto,Si,Ramon carrillo 1452,Mediana,Par,Farolito,Media Tensión (Con Protección),4.0,4.0,-58.83319952007701,-27.476722950101
199,211,224,10/08/2023 10:14:55,Plantacion,0,Entre 0.10 y 0.40 m,Sobre nivel,No,Sin inclinación,Menor a 5 m,Joven,Sin riesgo de caída,No,Arenosa,Asfalto,Si,San luis 1248,Mediana,Par,Farolito,Media Tensión (Con Protección),15.0,4.0,-58.84334121246301,-27.470757307185
200,212,225,10/08/2023 10:24:07,Plantacion,0,Entre 0.10 y 0.40 m,Sobre nivel,No,Sin inclinación,Menor a 5 m,Añoso,Sin riesgo de caída,No,Arenosa,Asfalto,Si,San luis 1165,Mediana,Impar,Farolito,Alta tensión (Con Protección),3.0,4.0,-58.842940347718,-27.469956468182
201,213,226,10/08/2023 10:42:42,Plantacion,0,Entre 0.10 y 0.40 m,Grande,No,Sin inclinación,Menor a 5 m,Joven,Sin riesgo de caída,No,Arenosa,Asfalto,Si,San luis 809,Mediana,Impar,Ñangapirí,Ninguno,12.0,4.0,-58.842660153324,-27.466167155785
202,214,227,10/08/2023 10:58:39,Plantacion,0,Entre 0.10 y 0.40 m,Mediana,No,Sin inclinación,Menor a 5 m,Joven,Sin riesgo de caída,No,Arenosa,Asfalto,Si,9 de julio 665,Mediana,Impar,Ñangapirí,Preensamblado,5.0,2.0,-58.841870407274,-27.465997074505
203,215,228,10/08/2023 11:01:26,Plantacion,0,Entre 0.10 y 0.40 m,Grande,No,Sin inclinación,Menor a 5 m,Joven,Sin riesgo de caída,No,Arenosa,Asfalto,Si,9 de julio 673,Mediana,Impar,Ñangapirí,Preensamblado,10.0,2.0,-58.841739517848,-27.465997946452
204,216,229,14/08/2023 9:52:02,Plantacion,0,Entre 0.10 y 0.40 m,Sin Cazoleta,No,Sin inclinación,Menor a 5 m,Joven,Sin riesgo de caída,No,Negra,Asfalto,Si,Araos y acevedo,Mediana,Impar,Ñangapirí,Media Tensión (Con Protección),5.0,3.0,-58.792288560954006,-27.482548382566
205,217,230,14/08/2023 9:54:02,Plantacion,0,Entre 0.10 y 0.40 m,Mediana,No,Sin inclinación,Menor a 5 m,Joven,Sin riesgo de caída,No,Negra,Asfalto,Si,Araos 15 91,Mediana,Impar,Ñangapirí,Media Tensión (Con Protección),5.0,4.0,-58.792288560954006,-27.482548382566
206,218,231,14/08/2023 9:56:24,Plantacion,0,Entre 0.10 y 0.40 m,Mediana,No,Sin inclinación,Menor a 5 m,Joven,Sin riesgo de caída,No,Negra,Asfalto,Si,Araos 1591,Mediana,Impar,Ñangapirí,Media Tensión (Con Protección),5.0,4.0,-58.792288560954006,-27.482548382566
207,219,232,14/08/2023 9:58:43,Plantacion,0,Entre 0.10 y 0.40 m,Sin Cazoleta,No,Sin inclinación,Menor a 5 m,Joven,Sin riesgo de caída,No,Negra,Asfalto,Si,Araos 1591,Mediana,Impar,Ñangapirí,Media Tensión (Con Protección),5.0,4.0,-58.792306926602,-27.482596459852005
208,220,233,14/08/2023 10:00:48,Plantacion,0,Entre 0.10 y 0.40 m,Sin Cazoleta,No,Sin inclinación,Menor a 5 m,Joven,Sin riesgo de caída,No,Suelo de Relleno,Asfalto,Si,Araos 1591,Mediana,Impar,Ñangapirí,Media Tensión (Con Protección),5.0,4.0,-58.792315224862,-27.482633073518
209,221,234,14/08/2023 10:33:59,Plantacion,0,Entre 0.10 y 0.40 m,Nivel del Piso,No,Sin inclinación,Menor a 5 m,Joven,Sin riesgo de caída,No,Negra,Ripio,No,Ernesto meabe 7301,Chica,Impar,Ñangapirí,Preensamblado,5.0,3.0,-58.76393169723501,-27.484432026606
210,222,235,14/08/2023 10:51:45,Plantacion,0,Entre 0.10 y 0.40 m,Sin Cazoleta,No,Sin inclinación,Menor a 5 m,Joven,Sin riesgo de caída,No,Negra,Ripio,No,Calle 558 ( 9450),Mediana,Par,Ñangapirí,Media Tensión (Con Protección),7.0,4.0,-58.738287383933006,-27.489239152182
211,223,236,14/08/2023 10:57:06,Plantacion,0,Entre 0.10 y 0.40 m,Grande,No,Sin inclinación,Menor a 5 m,Joven,Sin riesgo de caída,No,Negra,Asfalto,No,Calle 558 ( 9455),Chica,Impar,Paraíso,Media Tensión (Con Protección),10.0,3.0,-58.738278443807,-27.489089673204
212,224,237,14/08/2023 11:18:42,Plantacion,0,Entre 0.10 y 0.40 m,Chica,No,Sin inclinación,Menor a 5 m,Joven,Sin riesgo de caída,No,Limosa,Ripio,Si,Nelly y moresi,Chica,Impar,Ñangapirí,Alta tensión (Con Protección),5.0,4.0,-58.773735125666,-27.498997956763
213,19,32,16/05/2023 8:31:29,Plantacion,0,Entre 0.10 y 0.40 m,Sin Cazoleta,No,Sin inclinación,Menor a 5 m,Joven,Sin riesgo de caída,No,Negra,Ripio,Si,Pedro de siervi 5561,Grande,Impar,Paraíso,Alta tensión (Con Protección),2.0,4.0,-58.80937233000001,-27.527267142131
214,51,64,23/05/2023 10:22:54,Plantacion,0,Entre 0.10 y 0.40 m,Sin Cazoleta,No,Sin inclinación,Menor a 5 m,Joven,Sin riesgo de caída,No,Negra,Asfalto,Si,Plaza del pirayui,Grande,Par,Jacarandá,Subterraneo,6.0,0.0,-58.787955576059,-27.504143207291
215,107,120,31/05/2023 8:47:49,Plantacion,0,Entre 0.10 y 0.40 m,Sin Cazoleta,No,Sin inclinación,Menor a 5 m,Joven,Sin riesgo de caída,No,Negra,Ripio,No,Malvones 5650,Grande,Par,Pata de Buey,Media Tensión (Con Protección),3.0,3.0,-58.780579102355006,-27.454208335372
216,157,170,5/07/2023 9:45:55,Plantacion,0,Entre 0.10 y 0.40 m,Sin Cazoleta,No,Sin inclinación,Menor a 5 m,Joven,Sin riesgo de caída,No,Arenosa,Asfalto,No,Enrique jasid y ramon contrera,Mediana,Par,Pata de Buey,Ninguno,4.0,3.0,-58.774233520554,-27.482122637479
217,175,188,13/07/2023 10:47:07,Plantacion,0,Entre 0.10 y 0.40 m,Sin Cazoleta,No,Sin inclinación,Menor a 5 m,Joven,Sin riesgo de caída,No,Arenosa,Asfalto,Si,Esx via 1390,Chica,Par,Paraíso,Media Tensión (Con Protección),4.0,3.0,-58.83425322960901,-27.476811365376
218,176,189,13/07/2023 10:49:51,Plantacion,0,Entre 0.10 y 0.40 m,Sin Cazoleta,No,Sin inclinación,Menor a 5 m,Joven,Sin riesgo de caída,No,Arenosa,Asfalto,Si,Ex via,Chica,Par,Pata de Buey,Media Tensión (Con Protección),5.0,3.0,-58.834427722403,-27.476750852056
219,179,192,24/07/2023 9:20:33,Plantacion,0,Entre 0.10 y 0.40 m,Sin Cazoleta,No,Sin inclinación,Menor a 5 m,Joven,Sin riesgo de caída,No,Arenosa,Ripio,No,Raul alfonsin  7480,Grande,Par,Ñangapirí,Media Tensión (Con Protección),5.0,3.0,-58.755341753705,-27.483785934583
220,187,200,26/07/2023 9:09:04,Plantacion,0,Entre 0.10 y 0.40 m,Sin Cazoleta,No,Sin inclinación,Menor a 5 m,Joven,Sin riesgo de caída,No,Limosa,Asfalto,Si,Av. Tacuari,Parterre Central,Par,Pata de Buey,Media Tensión (Con Protección),4.0,0.0,-58.80781857567501,-27.487429099119
221,188,201,31/07/2023 9:13:18,Plantacion,0,Entre 0.10 y 0.40 m,Nivel del Piso,No,Sin inclinación,Menor a 5 m,Joven,Sin riesgo de caída,No,Arenosa,Asfalto,No,Panpin 58,Chica,Par,Ñangapirí,Preensamblado,3.0,2.0,-58.821716492878,-27.458982850563
222,190,203,31/07/2023 9:55:05,Plantacion,0,Entre 0.10 y 0.40 m,Mediana,No,Sin inclinación,Menor a 5 m,Joven,Sin riesgo de caída,No,Negra,Asfalto,No,Brazil 821,Chica,Impar,Farolito,Media Tensión (Con Protección),9.0,3.0,-58.823841022685,-27.467820416001
223,225,238,16/08/2023 8:13:12,Plantacion,0,Entre 0.10 y 0.40 m,Sin Cazoleta,No,Sin inclinación,Menor a 5 m,Joven,Sin riesgo de caída,No,Arenosa,Ripio,No,Gabriela mistral 4945,Chica,Impar,Paraíso,Alta tensión (Con Protección),4.0,3.0,-58.78924460007601,-27.469556599106
224,226,239,16/08/2023 9:09:22,Plantacion,0,Entre 0.10 y 0.40 m,Sin Cazoleta,No,Sin inclinación,Menor a 5 m,Joven,Sin riesgo de caída,No,Arenosa,Asfalto,Si,B 3 de abril 215 viv. S.B c.90,Chica,Par,Paraíso,Media Tensión (Sin Protección),6.0,4.0,-58.834511315256,-27.504699052846
225,227,240,16/08/2023 9:16:12,Plantacion,0,Entre 0.10 y 0.40 m,Sobre nivel,No,Sin inclinación,Menor a 5 m,Joven,Sin riesgo de caída,No,Arenosa,Ripio,Si,B° 3 de abril 215 viv. S.b c. 90,Mediana,Par,Paraíso,Media Tensión (Con Protección),6.0,4.0,-58.834641504396,-27.504659510729
226,228,241,16/08/2023 9:22:22,Plantacion,0,Entre 0.10 y 0.40 m,Sin Cazoleta,No,Sin inclinación,Menor a 5 m,Joven,Sin riesgo de caída,No,Limosa,Asfalto,Si,Ibera 2086,Grande,Par,Pata de Buey,Media Tensión (Con Protección),3.0,4.0,-58.82728224003901,-27.499504558359
227,229,242,16/08/2023 9:25:04,Plantacion,0,Entre 0.10 y 0.40 m,Sin Cazoleta,No,Sin inclinación,Menor a 5 m,Joven,Sin riesgo de caída,No,Negra,Asfalto,Si,Ibera 2086,Grande,Par,Farolito,Media Tensión (Con Protección),3.0,4.0,-58.827270890348,-27.499424621249
228,230,243,16/08/2023 9:27:28,Plantacion,0,Entre 0.10 y 0.40 m,Sin Cazoleta,No,Sin inclinación,Menor a 5 m,Joven,Sin riesgo de caída,No,Limosa,Asfalto,Si,Ibera 2086,Grande,Par,Pata de Buey,Media Tensión (Con Protección),3.0,4.0,-58.82725011740701,-27.499333755169
229,231,244,16/08/2023 9:30:09,Plantacion,0,Entre 0.10 y 0.40 m,Sin Cazoleta,No,Sin inclinación,Menor a 5 m,Joven,Sin riesgo de caída,No,Suelo de Relleno,Asfalto,Si,Ibera 2080,Grande,Par,Paraíso,Media Tensión (Con Protección),4.0,9.0,-58.827404650641,-27.499268506346
230,232,245,16/08/2023 10:45:41,Plantacion,0,Entre 0.10 y 0.40 m,Sin Cazoleta,No,Sin inclinación,De 4 y 7 m,Joven,Sin riesgo de caída,No,Negra,Asfalto,Si,Avenida sarmientos y cosquin,Mediana,Par,Lapacho,Preensamblado,30.0,0.0,-58.826454823092,-27.494576818778
231,233,246,16/08/2023 10:49:16,Plantacion,0,Entre 0.10 y 0.40 m,Sin Cazoleta,No,Sin inclinación,Menor a 5 m,Joven,Sin riesgo de caída,No,Arenosa,Asfalto,Si,Av. El maestro,Mediana,Par,Pata de Buey,Media Tensión (Con Protección),30.0,8.0,-58.826565361626,-27.494798931585
232,234,247,16/08/2023 11:13:30,Plantacion,0,Entre 0.10 y 0.40 m,Sin Cazoleta,No,Sin inclinación,Menor a 5 m,Joven,Arbol parasitado (con especies vegetales),No,Suelo de Relleno,Asfalto,Si,Ibera 2080,Grande,Par,Paraíso,Media Tensión (Con Protección),4.0,6.0,-58.827432488377,-27.499328953627
233,235,248,16/08/2023 11:19:45,Plantacion,0,Entre 0.10 y 0.40 m,Sin Cazoleta,No,Sin inclinación,Menor a 5 m,Joven,Arbol parasitado (con especies vegetales),No,Suelo de Relleno,Asfalto,Si,Ibera2080,Grande,Par,Paraíso,Media Tensión (Con Protección),4.0,6.0,-58.82739114002201,-27.499316015718
234,236,249,18/08/2023 10:46:07,Plantacion,0,Entre 0.10 y 0.40 m,Sin Cazoleta,No,Pronunciado,De 4 y 7 m,Joven,Sin riesgo de caída,No,Arenosa,Asfalto,Si,Ruta 5  km.32,Grande,Par,Palo Borracho,Alta tensión (Con Protección),10.0,10.0,-58.752386714954,-27.490907716177
235,237,250,18/08/2023 10:50:26,Plantacion,0,Entre 0.10 y 0.40 m,Grande,No,Sin inclinación,De 4 y 7 m,Joven,Sin riesgo de caída,No,Arenosa,Asfalto,Si,Ruta 5 km. 32,Grande,Par,Palo Borracho,Alta tensión (Con Protección),10.0,10.0,-58.752239117607,-27.490927727079
236,238,251,18/08/2023 10:52:45,Plantacion,0,Entre 0.10 y 0.40 m,Sin Cazoleta,No,Sin inclinación,De 4 y 7 m,Joven,Sin riesgo de caída,No,Limosa,Asfalto,Si,Ruta 5 km.32,Grande,Par,Jacarandá,Alta tensión (Con Protección),10.0,10.0,-58.752311881907,-27.490919905925
237,239,252,18/08/2023 10:57:29,Plantacion,0,Entre 0.10 y 0.40 m,Sin Cazoleta,No,Sin inclinación,De 4 y 7 m,Joven,Sin riesgo de caída,No,Limosa,Asfalto,Si,Ruta 5 km.32,Grande,Par,Jacarandá,Alta tensión (Con Protección),10.0,10.0,-58.752195820251,-27.490930556137
238,240,253,18/08/2023 11:34:35,Plantacion,0,Entre 0.10 y 0.40 m,Sin Cazoleta,No,Sin inclinación,De 4 y 7 m,Joven,Sin riesgo de caída,No,Limosa,Ripio,No,Raul alfonsin km.32,Chica,Par,Jacarandá,Alta tensión (Con Protección),10.0,10.0,-58.75036910285199,-27.484204774843
239,241,254,18/08/2023 11:39:37,Plantacion,0,Entre 0.10 y 0.40 m,Sin Cazoleta,No,Sin inclinación,De 4 y 7 m,Joven,Sin riesgo de caída,No,Arenosa,Asfalto,No,Raul alfonsina km.32,Grande,Par,Palo Borracho,Alta tensión (Con Protección),10.0,10.0,-58.750514144905,-27.484185403987
240,242,255,18/08/2023 11:43:15,Plantacion,0,Entre 0.10 y 0.40 m,Sin Cazoleta,No,Sin inclinación,De 4 y 7 m,Joven,Sin riesgo de caída,No,Limosa,Ripio,No,Raul alfonzin km32,Grande,Par,Jacarandá,Alta tensión (Con Protección),10.0,10.0,-58.750277259841,-27.484202335064
241,243,256,18/08/2023 11:45:38,Plantacion,0,Entre 0.10 y 0.40 m,Sin Cazoleta,No,Sin inclinación,De 4 y 7 m,Joven,Sin riesgo de caída,No,Limosa,Ripio,No,Raul alfonsin km.32,Grande,Par,Jacarandá,Alta tensión (Con Protección),10.0,10.0,-58.750130632745,-27.484207526739
242,244,257,23/08/2023 8:45:20,Plantacion,0,Entre 0.10 y 0.40 m,Sin Cazoleta,No,Sin inclinación,Menor a 5 m,Joven,Sin riesgo de caída,No,Arenosa,Asfalto,Si,Av. Montenegro ( santa catalina ),Parterre Central,Par,Pata de Buey,Preensamblado,3.0,2.0,-58.803516737767005,-27.528589947004
243,245,258,23/08/2023 8:49:05,Plantacion,0,Entre 0.10 y 0.40 m,Sin Cazoleta,No,Sin inclinación,Menor a 5 m,Joven,Sin riesgo de caída,No,Arenosa,Asfalto,Si,Av. Montenegro ( santa catalina),Parterre Central,Par,Pata de Buey,Ninguno,3.0,2.0,-58.803509949423,-27.528564614
244,246,259,23/08/2023 9:03:33,Extraccion,0,Entre 0.10 y 0.40 m,Sin Cazoleta,No,Leve,De 4 y 7 m,Maduro,Sin riesgo de caída,Leve,Negra,Asfalto,Si,Av. Montenegro 376 ( santa catalina),Mediana,Par,Lapacho,Media Tensión (Con Protección),5.0,3.0,-58.803583158882,-27.528565546492
245,247,260,23/08/2023 9:12:01,Extraccion,0,Entre 0.10 y 0.40 m,Sin Cazoleta,No,Sin inclinación,De 4 y 7 m,Maduro,Sin riesgo de caída,Leve,Negra,Asfalto,Si,Av. Montenegro y av. Damasio  (  santa catalina ),Mediana,Par,Lapacho,Media Tensión (Con Protección),5.0,3.0,-58.803589434409,-27.528588858926
246,248,261,23/08/2023 9:15:42,Plantacion,0,Menor a 0.10 m,Sin Cazoleta,No,Leve,Menor a 5 m,Joven,Sin riesgo de caída,No,Negra,Asfalto,Si,Av. Montenegro y av.damasio ( santa catalina),Mediana,Par,Farolito,Media Tensión (Con Protección),5.0,3.0,-58.803584867302,-27.528594464412
247,249,262,23/08/2023 9:18:32,Plantacion,0,Menor a 0.10 m,Sin Cazoleta,No,Sin inclinación,Menor a 5 m,Joven,Sin riesgo de caída,No,Negra,Asfalto,Si,Av. Montenegro 376,Mediana,Par,Farolito,Media Tensión (Con Protección),5.0,3.0,-58.803598874682,-27.528567972347
248,250,263,23/08/2023 9:21:32,Plantacion,0,Menor a 0.10 m,Sin Cazoleta,No,Sin inclinación,Menor a 5 m,Joven,Sin riesgo de caída,No,Limosa,Asfalto,Si,Av Montenegro ( santa catalina),Parterre Central,Par,Pata de Buey,Ninguno,3.0,2.0,-58.803504380152,-27.528544127298
249,251,264,23/08/2023 9:24:02,Plantacion,0,Menor a 0.10 m,Sin Cazoleta,No,Sin inclinación,Menor a 5 m,Joven,Sin riesgo de caída,No,Limosa,Asfalto,Si,Av .Montenegro ( santa catalina),Parterre Central,Par,Pata de Buey,Ninguno,3.0,2.0,-58.803498103971,-27.5285232762
250,252,265,23/08/2023 9:26:22,Plantacion,0,Menor a 0.10 m,Sin Cazoleta,No,Sin inclinación,Menor a 5 m,Joven,Sin riesgo de caída,No,Limosa,Asfalto,Si,Av. Montenegro ( santa catalina),Parterre Central,Par,Pata de Buey,Ninguno,3.0,2.0,-58.803496769705,-27.528500163098
251,253,266,23/08/2023 9:28:46,Plantacion,0,Menor a 0.10 m,Sin Cazoleta,No,Sin inclinación,Menor a 5 m,Joven,Sin riesgo de caída,No,Limosa,Asfalto,Si,Av Montenegro ( santa catalina),Parterre Central,Par,Pata de Buey,Ninguno,3.0,2.0,-58.803490397206005,-27.52847847017
252,254,267,23/08/2023 9:31:39,Plantacion,0,Menor a 0.10 m,Sin Cazoleta,No,Sin inclinación,Menor a 5 m,Joven,Sin riesgo de caída,No,Limosa,Asfalto,Si,Av. Montenegro ( santa catalina),Parterre Central,Par,Pata de Buey,Ninguno,3.0,2.0,-58.803473333924,-27.528390921722
253,255,268,23/08/2023 9:34:03,Plantacion,0,Menor a 0.10 m,Sin Cazoleta,No,Sin inclinación,Menor a 5 m,Joven,Sin riesgo de caída,No,Limosa,Asfalto,Si,Av Montenegro ( santa catalina),Parterre Central,Par,Pata de Buey,Ninguno,3.0,2.0,-58.803445788787,-27.528259878307
254,256,269,23/08/2023 9:36:37,Plantacion,0,Menor a 0.10 m,Sin Cazoleta,No,Sin inclinación,Menor a 5 m,Joven,Sin riesgo de caída,No,Limosa,Asfalto,Si,Av. Montenegro 365 ( santa catalina),Parterre Central,Par,Pata de Buey,Ninguno,3.0,2.0,-58.80342346883399,-27.528158643139
255,257,270,23/08/2023 9:39:38,Plantacion,0,Menor a 0.10 m,Sin Cazoleta,No,Sin inclinación,Menor a 5 m,Joven,Sin riesgo de caída,No,Limosa,Asfalto,Si,Av. Montenegro 363 ( santa catalina),Parterre Central,Par,Pata de Buey,Ninguno,3.0,2.0,-58.80341873383801,-27.528085743542
256,258,271,23/08/2023 9:42:17,Plantacion,0,Menor a 0.10 m,Sin Cazoleta,No,Sin inclinación,Menor a 5 m,Joven,Sin riesgo de caída,No,Limosa,Asfalto,Si,Av Montenegro 363 ( santa catalina),Parterre Central,Par,Pata de Buey,Media Tensión (Con Protección),3.0,2.0,-58.80340236761499,-27.528033455725
257,259,272,23/08/2023 9:44:52,Plantacion,0,Menor a 0.10 m,Sin Cazoleta,No,Sin inclinación,Menor a 5 m,Joven,Sin riesgo de caída,No,Limosa,Asfalto,Si,Av Montenegro 363 ( santa catalina),Parterre Central,Par,Pata de Buey,Ninguno,3.0,2.0,-58.803390088724,-27.527992522753
258,260,273,23/08/2023 9:47:53,Plantacion,0,Menor a 0.10 m,Sin Cazoleta,No,Sin inclinación,Menor a 5 m,Joven,Sin riesgo de caída,No,Limosa,Asfalto,Si,Av Montenegro 365 ( santa catalina),Parterre Central,Par,Palo Borracho,Ninguno,3.0,2.0,-58.803385131017,-27.527957923862
259,261,274,23/08/2023 10:02:15,Plantacion,0,Menor a 0.10 m,Sin Cazoleta,No,Sin inclinación,Menor a 5 m,Joven,Sin riesgo de caída,No,Limosa,Asfalto,Si,Av. Montenegro 350 ( santa catalina),Parterre Central,Par,Lapacho,Preensamblado,4.0,2.0,-58.803364010759005,-27.527844621522
260,262,275,23/08/2023 10:05:48,Mantenimiento,0,Entre 0.10 y 0.40 m,Sin Cazoleta,No,Sin inclinación,De 4 y 7 m,Joven,Sin riesgo de caída,No,Limosa,Asfalto,Si,Av. Montenegro 350 ( santa catalina),Parterre Central,Par,Ibirá Pitá,Ninguno,3.0,2.0,-58.803357425905,-27.527818504931
261,263,276,23/08/2023 10:09:32,Mantenimiento,0,Menor a 0.10 m,Sin Cazoleta,No,Sin inclinación,Menor a 5 m,Joven,Sin riesgo de caída,No,Limosa,Asfalto,Si,Av. Montenegro 350 ( santa catalina),Parterre Central,Par,Lapacho,Ninguno,4.0,2.0,-58.803356171858,-27.527793282116
262,264,277,23/08/2023 10:12:26,Mantenimiento,0,Menor a 0.10 m,Sin Cazoleta,No,Sin inclinación,De 4 y 7 m,Joven,Sin riesgo de caída,No,Limosa,Asfalto,Si,Av Montenegro 350 ( santa catalina),Parterre Central,Par,Lapachillo,Ninguno,5.0,2.0,-58.80335147817,-27.527771424157
263,265,278,23/08/2023 10:15:00,Mantenimiento,0,Entre 0.10 y 0.40 m,Sin Cazoleta,No,Sin inclinación,Menor a 5 m,Joven,Sin riesgo de caída,No,Limosa,Asfalto,Si,Av. Montenegro 350 ( santa catalina),Parterre Central,Par,Lapacho,Ninguno,3.0,2.0,-58.803348380722,-27.527733256753
264,266,279,23/08/2023 10:17:19,Plantacion,0,Entre 0.10 y 0.40 m,Sin Cazoleta,No,Sin inclinación,Menor a 5 m,Joven,Sin riesgo de caída,No,Limosa,Asfalto,Si,Av. Montenegro mz. 18 c. 17 s. 7,Parterre Central,Par,Pata de Buey,Ninguno,3.0,2.0,-58.803343946009,-27.527672047817
265,267,280,23/08/2023 10:20:49,Plantacion,0,Entre 0.10 y 0.40 m,Sin Cazoleta,No,Sin inclinación,Menor a 5 m,Joven,Sin riesgo de caída,No,Limosa,Asfalto,Si,Av Montenegro 322 ( santa catalina),Parterre Central,Par,Pata de Buey,Preensamblado,3.0,2.0,-58.80332918553899,-27.527609832648
266,268,281,23/08/2023 10:23:17,Plantacion,0,Entre 0.10 y 0.40 m,Sin Cazoleta,No,Sin inclinación,Menor a 5 m,Joven,Sin riesgo de caída,No,Limosa,Asfalto,Si,Av Montenegro 314 ( santa catalina),Parterre Central,Par,Pata de Buey,Ninguno,3.0,2.0,-58.80329410019701,-27.527390568501
267,269,282,23/08/2023 10:30:16,Mantenimiento,0,Entre 0.10 y 0.40 m,Sin Cazoleta,No,Sin inclinación,Menor a 5 m,Joven,Sin riesgo de caída,No,Limosa,Asfalto,Si,Av Montenegro 314 ( santa catalina),Parterre Central,Par,Lapacho,Ninguno,3.0,2.0,-58.803281385664,-27.527292015744
268,270,283,23/08/2023 10:33:44,Mantenimiento,0,Entre 0.10 y 0.40 m,Sin Cazoleta,No,Sin inclinación,De 4 y 7 m,Joven,Sin riesgo de caída,No,Limosa,Asfalto,Si,Av. Montenegro 306 ( santa catalina),Parterre Central,Par,Timbó Colorado,Ninguno,3.0,2.0,-58.80327712333298,-27.527257720768
269,271,284,23/08/2023 10:35:52,Plantacion,0,Entre 0.10 y 0.40 m,Sin Cazoleta,No,Sin inclinación,Menor a 5 m,Joven,Sin riesgo de caída,No,Limosa,Asfalto,Si,Av Montenegro 306,Parterre Central,Par,Lapacho,Ninguno,3.0,2.0,-58.80326688419,-27.527202256481
270,272,285,23/08/2023 10:37:55,Mantenimiento,0,Menor a 0.10 m,Sin Cazoleta,No,Sin inclinación,Menor a 5 m,Joven,Sin riesgo de caída,No,Limosa,Asfalto,Si,Av. Montenegro 306,Parterre Central,Par,Lapacho,Ninguno,3.0,2.0,-58.803255301543,-27.527121266751
271,273,286,23/08/2023 10:40:10,Plantacion,0,Entre 0.10 y 0.40 m,Sin Cazoleta,No,Sin inclinación,Menor a 5 m,Joven,Sin riesgo de caída,No,Limosa,Asfalto,Si,Av Montenegro 298,Parterre Central,Par,Palo Borracho,Ninguno,3.0,2.0,-58.803243291848,-27.527080677354
272,274,287,23/08/2023 10:41:56,Mantenimiento,0,Entre 0.10 y 0.40 m,Sin Cazoleta,No,Sin inclinación,Menor a 5 m,Joven,Sin riesgo de caída,No,Limosa,Asfalto,Si,Av Montenegro 298 ( santa catalina),Parterre Central,Par,Lapacho,Ninguno,3.0,2.0,-58.803228643956,-27.527029208749
273,275,288,23/08/2023 10:44:11,Plantacion,0,Entre 0.10 y 0.40 m,Sin Cazoleta,No,Sin inclinación,Menor a 5 m,Joven,Sin riesgo de caída,No,Limosa,Asfalto,Si,Av Montenegro 290 ( santa catalina),Chica,Par,Pata de Buey,Ninguno,3.0,2.0,-58.803218634522,-27.526993710384
274,276,289,23/08/2023 10:46:44,Plantacion,0,Entre 0.10 y 0.40 m,Sin Cazoleta,No,Sin inclinación,Menor a 5 m,Joven,Sin riesgo de caída,No,Limosa,Asfalto,Si,Av Montenegro 290 ( santa catalina),Parterre Central,Par,Pata de Buey,Ninguno,3.0,2.0,-58.803210735905004,-27.526947899625
275,277,290,23/08/2023 10:48:56,Plantacion,0,Entre 0.10 y 0.40 m,Sin Cazoleta,No,Sin inclinación,Menor a 5 m,Joven,Sin riesgo de caída,No,Limosa,Asfalto,Si,Av. Montenegro 262,Parterre Central,Par,Pata de Buey,Ninguno,3.0,2.0,-58.803207140349,-27.526909885249
276,278,291,23/08/2023 10:51:18,Plantacion,0,Entre 0.10 y 0.40 m,Sin Cazoleta,No,Sin inclinación,Menor a 5 m,Joven,Sin riesgo de caída,No,Limosa,Asfalto,Si,Av Montenegro y H. Dimota,Parterre Central,Par,Pata de Buey,Ninguno,3.0,3.0,-58.803173089513,-27.526784352377
277,279,292,23/08/2023 10:53:46,Plantacion,0,Entre 0.10 y 0.40 m,Sin Cazoleta,No,Sin inclinación,Menor a 5 m,Joven,Sin riesgo de caída,No,Limosa,Asfalto,Si,Av Montenegro ( santa catalina),Parterre Central,Par,Pata de Buey,Ninguno,3.0,2.0,-58.80316275959701,-27.526730984595
278,280,293,23/08/2023 10:56:08,Plantacion,0,Entre 0.10 y 0.40 m,Sin Cazoleta,No,Sin inclinación,Menor a 5 m,Joven,Sin riesgo de caída,No,Limosa,Asfalto,Si,Av Montenegro ( santa catalina),Parterre Central,Par,Pata de Buey,Ninguno,3.0,2.0,-58.803146453069,-27.526630766097
279,281,294,23/08/2023 10:58:34,Plantacion,0,Entre 0.10 y 0.40 m,Sin Cazoleta,No,Sin inclinación,De 10 a 15 m,Joven,Sin riesgo de caída,No,Limosa,Asfalto,Si,Av Montenegro y H. Dimota,Parterre Central,Par,Pata de Buey,Ninguno,3.0,2.0,-58.8031335104,-27.526549695601
280,282,295,23/08/2023 11:02:45,Plantacion,0,Menor a 0.10 m,Sin Cazoleta,No,Sin inclinación,Menor a 5 m,Joven,Sin riesgo de caída,No,Limosa,Asfalto,Si,H. Dimota 4076 torre 2,Mediana,Par,Pata de Buey,Media Tensión (Con Protección),4.0,7.0,-58.803503331763,-27.52647045772
281,283,296,24/08/2023 9:21:58,Plantacion,0,Entre 0.10 y 0.40 m,Sin Cazoleta,No,Sin inclinación,Menor a 5 m,Joven,Sin riesgo de caída,No,Arenosa,Asfalto,Si,Parque camba cua,Plaza,Par,Lapacho,Subterraneo,10.0,0.0,-58.846186489041,-27.465588408796
282,284,297,24/08/2023 9:55:51,Plantacion,0,Menor a 0.10 m,Sin Cazoleta,No,Sin inclinación,De 10 a 15 m,Joven,Sin riesgo de caída,No,Negra,Asfalto,Si,Parque camba cua,Plaza,Par,Lapacho,Subterraneo,10.0,0.0,-58.843686376806,-27.465725116251
283,285,298,24/08/2023 10:05:02,Plantacion,0,Entre 0.10 y 0.40 m,Sobre nivel,No,Sin inclinación,Menor a 5 m,Joven,Sin riesgo de caída,No,Suelo de Relleno,Asfalto,Si,Parque camba cua,Plaza,Par,Lapacho,Subterraneo,9.0,0.0,-58.84351273516201,-27.465708385249
284,286,299,24/08/2023 10:54:04,Plantacion,0,Entre 0.10 y 0.40 m,Sin Cazoleta,No,Sin inclinación,Menor a 5 m,Joven,Sin riesgo de caída,No,Arenosa,Asfalto,Si,Av. Cuarto de centenario,Parterre Central,Par,Ñangapirí,Alta tensión (Sin Protección),5.0,2.0,-58.838105647254,-27.489746083269
285,287,300,30/08/2023 7:59:13,Plantacion,0,Entre 0.10 y 0.40 m,Sin Cazoleta,No,Sin inclinación,De 4 y 7 m,Joven,Sin riesgo de caída,No,Limosa,Asfalto,Si,Plaza Mercosur,Plaza,Par,Lapacho,Subterraneo,4.0,0.0,-58.782646383846995,-27.484934578062
286,288,301,30/08/2023 8:01:23,Plantacion,0,Entre 0.10 y 0.40 m,Sin Cazoleta,No,Sin inclinación,De 5 a 10 m,Joven,Sin riesgo de caída,No,Limosa,Asfalto,Si,Plaza mercosur,Plaza,Par,Ibirá Pitá,Subterraneo,4.0,0.0,-58.782590703742,-27.484958703711
287,289,302,30/08/2023 8:03:50,Plantacion,0,Entre 0.10 y 0.40 m,Sin Cazoleta,No,Sin inclinación,Menor a 5 m,Joven,Sin riesgo de caída,No,Limosa,Asfalto,Si,Plaza Mercosur,Plaza,Par,Ibirá Pitá,Subterraneo,10.0,0.0,-58.782511206303006,-27.485046899479
288,290,303,30/08/2023 8:06:08,Plantacion,0,Entre 0.10 y 0.40 m,Sin Cazoleta,No,Sin inclinación,De 4 y 7 m,Joven,Sin riesgo de caída,No,Limosa,Asfalto,Si,Plaza Mercosur,Plaza,Par,Ibirá Pitá,Subterraneo,4.0,0.0,-58.782422148409,-27.485138794034
289,291,304,30/08/2023 8:09:36,Plantacion,0,Entre 0.10 y 0.40 m,Sin Cazoleta,No,Sin inclinación,Menor a 5 m,Joven,Sin riesgo de caída,No,Limosa,Asfalto,Si,Plaza Mercosur,Plaza,Par,Jacarandá,Subterraneo,7.0,0.0,-58.78233380653,-27.485225576792
290,292,305,30/08/2023 8:15:02,Plantacion,0,Entre 0.10 y 0.40 m,Sin Cazoleta,No,Sin inclinación,Menor a 5 m,Joven,Sin riesgo de caída,No,Limosa,Asfalto,Si,Plaza Mercosur,Plaza,Par,Pata de Buey,Subterraneo,4.0,0.0,-58.782247364464,-27.485302502201
291,293,306,30/08/2023 8:18:11,Plantacion,0,Entre 0.10 y 0.40 m,Sin Cazoleta,No,Sin inclinación,Menor a 5 m,Joven,Sin riesgo de caída,Considerable,Limosa,Asfalto,Si,Plaza Mercosur,Plaza,Par,Jacarandá,Media Tensión (Con Protección),0.0,4.0,-58.782183512955,-27.485432227236
292,294,307,30/08/2023 8:20:06,Plantacion,0,Entre 0.10 y 0.40 m,Sin Cazoleta,No,Sin inclinación,Menor a 5 m,Joven,Sin riesgo de caída,No,Limosa,Asfalto,Si,Plaza Mercosur,Chica,Par,Pata de Buey,Preensamblado,8.0,0.0,-58.782292600921,-27.485419970691
293,295,308,30/08/2023 8:22:35,Plantacion,0,Entre 0.10 y 0.40 m,Sin Cazoleta,No,Sin inclinación,Menor a 5 m,Joven,Sin riesgo de caída,No,Limosa,Asfalto,Si,Plaza Mercosur,Plaza,Par,Pata de Buey,Preensamblado,4.0,0.0,-58.78210067133,-27.48560229573
294,296,309,30/08/2023 8:24:54,Plantacion,0,Entre 0.10 y 0.40 m,Sin Cazoleta,No,Sin inclinación,Menor a 5 m,Joven,Sin riesgo de caída,No,Limosa,Asfalto,Si,Plaza Mercosur,Plaza,Par,Pata de Buey,Preensamblado,7.0,12.0,-58.78206631742601,-27.485880446727
295,297,310,30/08/2023 8:26:56,Plantacion,0,Entre 0.10 y 0.40 m,Sin Cazoleta,No,Sin inclinación,Menor a 5 m,Joven,Sin riesgo de caída,No,Limosa,Asfalto,Si,Plaza Mercosur,Plaza,Par,Pata de Buey,Preensamblado,4.0,0.0,-58.781929353291005,-27.485954303021
296,298,311,30/08/2023 8:29:22,Plantacion,0,Entre 0.10 y 0.40 m,Sin Cazoleta,No,Sin inclinación,Menor a 5 m,Joven,Sin riesgo de caída,No,Limosa,Asfalto,Si,Plaza Mercosur,Plaza,Par,Pata de Buey,Preensamblado,4.0,0.0,-58.781956382115,-27.486153331961
297,299,312,30/08/2023 8:34:41,Plantacion,0,Entre 0.10 y 0.40 m,Sin Cazoleta,No,Sin inclinación,Menor a 5 m,Joven,Sin riesgo de caída,No,Limosa,Asfalto,Si,Plaza Mercosur,Plaza,Par,Lapacho,Preensamblado,4.0,0.0,-58.782725756805,-27.484859467813
298,300,313,30/08/2023 8:36:40,Plantacion,0,Entre 0.10 y 0.40 m,Sin Cazoleta,No,Sin inclinación,Menor a 5 m,Joven,Sin riesgo de caída,No,Limosa,Asfalto,Si,Plaza Mercosur,Plaza,Par,Lapacho,Preensamblado,4.0,0.0,-58.782908741623,-27.484793749456
299,301,314,30/08/2023 8:40:26,Plantacion,0,Entre 0.10 y 0.40 m,Nivel del Piso,No,Sin inclinación,De 4 y 7 m,Joven,Sin riesgo de caída,No,Limosa,Asfalto,Si,Plaza Mercosur,Plaza,Par,Ibirá Pitá,Preensamblado,7.0,0.0,-58.783116631274,-27.484705606697
300,302,315,30/08/2023 8:42:59,Plantacion,0,Entre 0.10 y 0.40 m,Sin Cazoleta,No,Sin inclinación,Menor a 5 m,Joven,Sin riesgo de caída,No,Limosa,Asfalto,Si,Plaza Mercosur,Parterre Central,Par,Ibirá Pitá,Media Tensión (Sin Protección),20.0,0.0,-58.783198908767,-27.484598584194
301,303,316,7/09/2023 12:17:55,Extraccion,1,Mayor a 0.8 m,Sin Cazoleta,No,Moderado,De 10 a 15 m,Añoso,Con riesgo de caída (alto),No,Negra,Asfalto,Si,Santo tome y margaritas,Grande,Par,Ingá,Alta tensión (Con Protección),4.0,2.0,-58.78557007736999,-27.439908500172
302,304,317,11/09/2023 11:55:30,Extraccion,1,Entre 0.10 y 0.40 m,Sin Cazoleta,No,Pronunciado,De 10 a 15 m,Maduro,Con riesgo de caída (alto),Leve,Negra,Asfalto,Si,Bolivar  y  velez sarsfield,Mediana,Impar,Jacarandá,Preensamblado,4.0,3.0,-58.82064902727901,-27.472460876865
303,306,319,18/09/2023 9:46:04,Plantacion,0,Entre 0.10 y 0.40 m,Chica,No,Sin inclinación,Menor a 5 m,Joven,Sin riesgo de caída,No,Negra,Ripio,No,Rio bermejo 1920,Chica,Par,Farolito,Media Tensión (Con Protección),3.0,2.0,-58.80187205045,-27.484552986183
304,307,320,18/09/2023 9:50:35,Plantacion,0,Entre 0.10 y 0.40 m,Chica,No,Sin inclinación,Menor a 5 m,Joven,Sin riesgo de caída,No,Negra,Ripio,No,Rio bermejo 1920,Chica,Par,Farolito,Media Tensión (Con Protección),3.0,2.0,-58.801860202021,-27.484510850426
305,308,321,18/09/2023 10:45:15,Plantacion,0,Entre 0.10 y 0.40 m,Nivel del Piso,No,Sin inclinación,Menor a 5 m,Joven,Sin riesgo de caída,No,Arenosa,Asfalto,Si,Entre rio 855,Mediana,Par,Ñangapirí,Media Tensión (Con Protección),8.0,3.0,-58.84406801012701,-27.466310948006
306,309,322,18/09/2023 11:00:23,Plantacion,0,Entre 0.10 y 0.40 m,Sin Cazoleta,No,Sin inclinación,Menor a 5 m,Joven,Sin riesgo de caída,No,Arenosa,Asfalto,Si,Entre rio 1044,Mediana,Par,Ñangapirí,Media Tensión (Con Protección),7.0,3.0,-58.84433085280801,-27.468479441933
307,310,323,18/09/2023 11:12:04,Plantacion,0,Entre 0.10 y 0.40 m,Mediana,No,Sin inclinación,De 10 a 15 m,Joven,Sin riesgo de caída,No,Limosa,Asfalto,Si,Entre rio 1021,Chica,Impar,Farolito,Alta tensión (Con Protección),17.0,3.0,-58.844232295649,-27.468375429468
308,311,324,18/09/2023 11:19:18,Plantacion,0,Entre 0.10 y 0.40 m,Mediana,No,Sin inclinación,Menor a 5 m,Joven,Sin riesgo de caída,No,Arenosa,Asfalto,Si,Entre rio 1076,Mediana,Par,Farolito,Preensamblado,10.0,3.0,-58.844346131745,-27.468854827303
309,312,325,19/09/2023 10:44:39,Plantacion,0,Entre 0.10 y 0.40 m,Sin Cazoleta,No,Sin inclinación,Menor a 5 m,Joven,Sin riesgo de caída,No,Suelo de Relleno,Ripio,No,Las teresitas 5630,Mediana,Par,Ñangapirí,Preensamblado,6.0,3.0,-58.780702400279,-27.456457441936
310,313,326,19/09/2023 10:49:05,Plantacion,0,Entre 0.10 y 0.40 m,Sin Cazoleta,No,Sin inclinación,Menor a 5 m,Joven,Sin riesgo de caída,No,Limosa,Ripio,No,Las teresitas 5630,Mediana,Par,Ñangapirí,Preensamblado,4.0,3.0,-58.780672411033,-27.456442568211
311,314,327,19/09/2023 10:51:16,Plantacion,0,Entre 0.10 y 0.40 m,Sobre nivel,No,Sin inclinación,Menor a 5 m,Joven,Sin riesgo de caída,No,Suelo de Relleno,Ripio,No,Las teresitas 5630,Mediana,Par,Farolito,Preensamblado,4.0,3.0,-58.780682977184,-27.456447391755
312,335,351,2/10/2023 11:42:02,Tala,3,Entre 0.10 y 0.40 m,Chica,No,Moderado,De 5 a 10 m,Añoso,Con riesgo de caída (alto),No,Negra,Asfalto,Si,Santa fe 583,Mediana,Impar,Fresno,Preensamblado,1.0,1.7,-58.82997186232101,-27.464717272014
313,336,352,4/10/2023 15:22:27,Extraccion,0,Entre 0.10 y 0.40 m,Sin Cazoleta,No,Sin inclinación,De 4 y 7 m,Joven,Sin riesgo de caída,Considerable,Limosa,Asfalto,Si,B montaña 400 vivmz 79 casa 36 calle klein  5456,Chica,Par,Sin identificar,Media Tensión (Con Protección),4.0,1.0,-58.794352657323,-27.51427895403
314,337,353,4/10/2023 20:27:24,Extraccion,3,Entre 0.10 y 0.40 m,Chica,No,Leve,Menor a 5 m,Añoso,Con riesgo de caída (alto),No,Negra,Asfalto,Si,Junin 447,Mediana,Impar,Ficus,Preensamblado,10.0,2.0,-58.84475436186901,-27.466925895611
315,338,354,4/10/2023 20:50:09,Extraccion,3,Entre 0.10 y 0.40 m,Chica,No,Leve,De 5 a 10 m,Decrepito,Sin riesgo de caída,No,Negra,Asfalto,Si,Brasil 1015,Mediana,Impar,Fresno,Alta tensión (Con Protección),10.0,1.5,-58.824208022918,-27.46981401684
316,339,355,4/10/2023 21:01:48,Inspeccion,0,Entre 0.10 y 0.40 m,Sin Cazoleta,No,Leve,Mayor a 15 m,Añoso,Sin riesgo de caída,Considerable,Negra,Asfalto,Si,San juan 1230,Chica,Impar,Ibirá Pitá,Preensamblado,16.0,1.2,-58.83702483968298,-27.47119906679
317,342,358,5/10/2023 16:30:02,Registro de Arbol,0,Entre 0.10 y 0.40 m,Grande,No,Leve,De 10 a 15 m,Maduro,Sin riesgo de caída,No,Suelo de Relleno,Asfalto,Si,Sargento cabral 2096,Mediana,Par,Lapacho,Preensamblado,1.0,1.0,-58.823850275069,-27.459656080097005
318,343,359,5/10/2023 16:49:27,Registro de Arbol,3,Entre 0.10 y 0.40 m,Sobre nivel,Bajo,Sin inclinación,Menor a 5 m,Añoso,Sin riesgo de caída,Considerable,Suelo de Relleno,Asfalto,Si,Sargento Cabral 2100,Grande,Par,Fresno,Ninguno,17.0,3.0,-58.823195735853,-27.45981916992
319,344,360,5/10/2023 17:43:32,Registro de Arbol,0,Entre 0.10 y 0.40 m,Chica,No,Sin inclinación,Menor a 5 m,Maduro,Sin riesgo de caída,No,Negra,Asfalto,Si,Rivadavia 1189,Mediana,Impar,Citricos,Alta tensión (Con Protección),1.5,2.5,-58.836538494741,-27.474382155383
320,345,361,5/10/2023 17:48:44,Registro de Arbol,0,Entre 0.10 y 0.40 m,Chica,No,Sin inclinación,Menor a 5 m,Maduro,Sin riesgo de caída,No,Negra,Asfalto,Si,Rivadavia 1189,Mediana,Impar,Crespón,Alta tensión (Con Protección),1.5,2.5,-58.836581983663,-27.474369767271
321,346,362,5/10/2023 17:51:48,Registro de Arbol,0,Entre 0.10 y 0.40 m,Chica,No,Sin inclinación,Menor a 5 m,Joven,Sin riesgo de caída,No,Negra,Asfalto,Si,Rivadavia 1177,Mediana,Impar,Crespón,Alta tensión (Con Protección),2.0,2.5,-58.836679870144,-27.474355093382
322,347,363,5/10/2023 17:52:52,Registro de Arbol,0,Entre 0.10 y 0.40 m,Chica,No,Sin inclinación,Menor a 5 m,Joven,Sin riesgo de caída,No,Negra,Asfalto,Si,Rivadavia 1177,Mediana,Impar,Crespón,Alta tensión (Con Protección),2.0,2.5,-58.83685128539201,-27.474331552337
323,348,364,5/10/2023 17:59:51,Registro de Arbol,2,Entre 0.10 y 0.40 m,Mediana,Menor al 50% del diámetro del tronco,Sin inclinación,Menor a 5 m,Joven,Otros parásitos (fuste),No,Negra,Asfalto,Si,Rivadavia 1155,Mediana,Impar,Palmera,Alta tensión (Con Protección),2.4,1.8,-58.836776797639,-27.474332873257
324,349,365,5/10/2023 18:00:57,Registro de Arbol,0,Entre 0.10 y 0.40 m,Chica,No,Sin inclinación,Menor a 5 m,Maduro,Sin riesgo de caída,No,Negra,Asfalto,Si,Rivadavia 1155,Chica,Impar,Paraíso,Alta tensión (Con Protección),2.4,1.8,-58.83679859272101,-27.474327910325
325,350,366,5/10/2023 18:09:16,Registro de Arbol,0,Entre 0.10 y 0.40 m,Chica,No,Leve,Menor a 5 m,Maduro,Sin riesgo de caída,Leve,Negra,Asfalto,Si,Rivadavia 1145,Mediana,Impar,Paraíso,Alta tensión (Con Protección),9.0,2.0,-58.83708894271,-27.474299887191
326,351,367,5/10/2023 18:18:39,Registro de Arbol,0,Entre 0.10 y 0.40 m,Sobre nivel,No,Sin inclinación,De 4 y 7 m,Maduro,Sin riesgo de caída,Leve,Suelo de Relleno,Asfalto,Si,San Juan 1451,Mediana,Impar,Palito dulce,Alta tensión (Con Protección),4.0,2.5,-58.83730208935701,-27.473653862318
327,352,368,5/10/2023 18:18:58,Registro de Arbol,0,Entre 0.10 y 0.40 m,Chica,No,Sin inclinación,De 4 y 7 m,Maduro,Sin riesgo de caída,Leve,Suelo de Relleno,Asfalto,Si,San Juan 1451,Mediana,Impar,Fresno,Alta tensión (Con Protección),4.0,2.5,-58.837297455721,-27.473618152469
328,353,369,5/10/2023 18:21:45,Registro de Arbol,0,Entre 0.10 y 0.40 m,Mediana,No,Sin inclinación,De 4 y 7 m,Maduro,Sin riesgo de caída,Leve,Limosa,Asfalto,Si,San Juan 1425,Mediana,Impar,Fresno,Alta tensión (Con Protección),24.0,2.5,-58.837292502386,-27.473503324101
329,354,370,5/10/2023 18:27:47,Registro de Arbol,0,Entre 0.10 y 0.40 m,Chica,No,Leve,De 10 a 15 m,Maduro,Sin riesgo de caída,Leve,Suelo de Relleno,Asfalto,Si,Mariano Moreno 1112,Mediana,Par,Tulipanero,Alta tensión (Con Protección),10.0,2.5,-58.836999141577,-27.473320689122
330,355,371,5/10/2023 18:33:26,Registro de Arbol,0,Entre 0.10 y 0.40 m,Chica,No,Sin inclinación,Menor a 5 m,Maduro,Arbol parasitado (insectos),No,Suelo de Relleno,Asfalto,Si,Mendoza 1464,Mediana,Par,Citricos,Alta tensión (Con Protección),10.0,2.0,-58.83635050897801,-27.474035858315
331,356,372,5/10/2023 18:35:27,Registro de Arbol,0,Entre 0.10 y 0.40 m,Chica,No,Sin inclinación,De 4 y 7 m,Maduro,Sin riesgo de caída,No,Negra,Asfalto,Si,Mendoza 1468,Chica,Par,Palito dulce,Alta tensión (Con Protección),10.0,2.0,-58.83638906225812,-27.473986444435564
332,357,373,5/10/2023 18:36:35,Registro de Arbol,0,Entre 0.10 y 0.40 m,Sobre nivel,No,Leve,De 10 a 15 m,Maduro,Sin riesgo de caída,Considerable,Suelo de Relleno,Asfalto,Si,Mendoza 1478,Mediana,Par,Ficus variegado,Alta tensión (Con Protección),5.0,2.0,-58.83633035547201,-27.474201991581
333,358,374,5/10/2023 18:42:07,Registro de Arbol,2,Entre 0.10 y 0.40 m,Sobre nivel,No,Sin inclinación,De 4 y 7 m,Maduro,Otros parásitos (fuste),No,Suelo de Relleno,Asfalto,Si,Mendoza 1490,Mediana,Par,Ficus variegado,Alta tensión (Con Protección),5.0,2.0,-58.83634806153001,-27.474296716569
334,359,375,5/10/2023 18:43:01,Registro de Arbol,0,Entre 0.10 y 0.40 m,Chica,No,Moderado,De 10 a 15 m,Maduro,Sin riesgo de caída,Considerable,Suelo de Relleno,Asfalto,Si,Mendoza 1184,Chica,Par,Ficus,Alta tensión (Con Protección),5.0,2.0,-58.836344027904,-27.474265233067
335,360,376,5/10/2023 18:44:37,Registro de Arbol,0,Entre 0.10 y 0.40 m,Sobre nivel,No,Leve,De 10 a 15 m,Maduro,Arbol parasitado (con especies vegetales),Leve,Suelo de Relleno,Asfalto,Si,Mendoza 1495,Mediana,Par,Ficus variegado,Alta tensión (Con Protección),5.0,2.0,-58.83634492768801,-27.474362629123
336,361,377,7/10/2023 8:21:16,Registro de Arbol,0,Entre 0.10 y 0.40 m,Nivel del Piso,No,Sin inclinación,De 5 a 10 m,Maduro,Sin riesgo de caída,No,Arenosa,Asfalto,Si,España 954,Chica,Par,Palmera,Media Tensión (Con Protección),0.0,1.5,-58.829518619929445,-27.46860280962848
337,362,378,7/10/2023 8:34:56,Registro de Arbol,0,Entre 0.10 y 0.40 m,Chica,No,Leve,Menor a 5 m,Joven,Sin riesgo de caída,No,Suelo de Relleno,Asfalto,Si,Bolivar 1590,Mediana,Par,Ficus variegado,Media Tensión (Con Protección),6.0,2.4,-58.831102648225006,-27.471507589869
338,363,379,7/10/2023 8:40:19,Registro de Arbol,0,Entre 0.10 y 0.40 m,Chica,No,Leve,Menor a 5 m,Joven,Sin riesgo de caída,Leve,Suelo de Relleno,Asfalto,Si,Bolivar 1586,Mediana,Par,Paraíso,Media Tensión (Con Protección),6.0,2.4,-58.831232024238005,-27.471472775346
339,364,380,7/10/2023 8:43:46,Registro de Arbol,0,Entre 0.10 y 0.40 m,Chica,No,Leve,Menor a 5 m,Maduro,Sin riesgo de caída,No,Arenosa,Asfalto,Si,Bolivar 1558,Mediana,Par,Ficus,Media Tensión (Con Protección),8.0,2.4,-58.831262349154,-27.471456867389
340,365,381,7/10/2023 8:50:51,Registro de Arbol,1,Entre 0.10 y 0.40 m,Chica,No,Sin inclinación,Menor a 5 m,Maduro,Sin riesgo de caída,Considerable,Arenosa,Asfalto,Si,Bolivar 1554,Mediana,Par,Naranjo agrio,Media Tensión (Con Protección),12.0,2.4,-58.831425331033,-27.471455925087
341,366,382,7/10/2023 8:57:19,Registro de Arbol,1,Entre 0.10 y 0.40 m,Chica,No,Leve,De 5 a 10 m,Añoso,Arbol parasitado (con especies vegetales),Leve,Arenosa,Asfalto,Si,Bolivar 1540,Mediana,Par,Pata de Buey (Nativa),Media Tensión (Con Protección),4.0,2.4,-58.831524752484,-27.471442070032
342,367,383,7/10/2023 9:01:49,Registro de Arbol,1,Entre 0.10 y 0.40 m,Chica,No,Leve,De 5 a 10 m,Maduro,Arbol parasitado (con especies vegetales),Leve,Arenosa,Asfalto,Si,Bolivar 1538,Mediana,Par,Pata de Buey (Nativa),Media Tensión (Con Protección),7.0,2.4,-58.831503389623,-27.471433162626
343,368,384,7/10/2023 9:08:53,Registro de Arbol,0,Entre 0.10 y 0.40 m,Chica,No,Sin inclinación,Menor a 5 m,Maduro,Sin riesgo de caída,No,Arenosa,Asfalto,Si,Bolivar 1536,Mediana,Par,Mirto,Media Tensión (Con Protección),8.0,2.4,-58.831634678141,-27.471426926162
344,369,385,7/10/2023 9:12:50,Registro de Arbol,0,Entre 0.10 y 0.40 m,Sobre nivel,No,Sin inclinación,Menor a 5 m,Añoso,Sin riesgo de caída,No,Arenosa,Asfalto,Si,Bolivar 1532,Mediana,Par,Ficus variegado,Media Tensión (Con Protección),6.0,2.4,-58.831680742273,-27.471419081464
345,370,386,7/10/2023 9:15:48,Registro de Arbol,2,Entre 0.10 y 0.40 m,Chica,No,Leve,Menor a 5 m,Maduro,Sin riesgo de caída,No,Arenosa,Asfalto,Si,Bolivar 1516,Mediana,Par,Ficus variegado,Media Tensión (Con Protección),6.0,2.4,-58.831733175778,-27.471412633132
346,371,387,7/10/2023 9:24:45,Registro de Arbol,0,Entre 0.10 y 0.40 m,Nivel del Piso,No,Leve,De 10 a 15 m,Maduro,Arbol parasitado (con especies vegetales),No,Arenosa,Asfalto,Si,San Lorenzo 1209,Grande,Impar,Palito dulce,Media Tensión (Con Protección),15.0,2.4,-58.832134486545,-27.471430387033
347,372,388,7/10/2023 9:31:25,Registro de Arbol,0,Entre 0.10 y 0.40 m,Nivel del Piso,No,Pronunciado,Menor a 5 m,Maduro,Sin riesgo de caída,No,Arenosa,Asfalto,Si,San Lorenzo 1219,Grande,Impar,Palito dulce,Media Tensión (Con Protección),0.3,3.0,-58.83211532186001,-27.471491837971
348,373,389,7/10/2023 9:35:29,Registro de Arbol,0,Entre 0.10 y 0.40 m,Nivel del Piso,No,Sin inclinación,Menor a 5 m,Joven,Sin riesgo de caída,No,Arenosa,Asfalto,Si,San Lorenzo 1223,Grande,Impar,Palmera,Media Tensión (Con Protección),2.5,2.8,-58.83213243646401,-27.471526822211
349,374,390,7/10/2023 9:38:43,Registro de Arbol,0,Entre 0.10 y 0.40 m,Nivel del Piso,No,Leve,Menor a 5 m,Maduro,Sin riesgo de caída,Considerable,Arenosa,Asfalto,Si,San Lorenzo 1227,Grande,Impar,Naranjo agrio,Media Tensión (Con Protección),2.5,2.6,-58.83214848974,-27.47158128931
350,375,391,7/10/2023 9:42:09,Registro de Arbol,0,Entre 0.10 y 0.40 m,Nivel del Piso,No,Sin inclinación,Menor a 5 m,Maduro,Sin riesgo de caída,No,Arenosa,Asfalto,Si,San Lorenzo 1251,Grande,Impar,Pata de Buey,Media Tensión (Con Protección),30.0,2.6,-58.832169678205,-27.471657892935
351,376,392,7/10/2023 9:45:22,Registro de Arbol,0,Entre 0.10 y 0.40 m,Nivel del Piso,No,Sin inclinación,De 10 a 15 m,Maduro,Sin riesgo de caída,No,Arenosa,Asfalto,Si,San Lorenzo 1281,Grande,Impar,Ficus variegado,Media Tensión (Con Protección),6.0,2.4,-58.832168918989,-27.471872656468
352,377,393,7/10/2023 9:52:33,Registro de Arbol,0,Entre 0.10 y 0.40 m,Nivel del Piso,No,Sin inclinación,De 4 y 7 m,Maduro,Arbol parasitado (con especies vegetales),No,Arenosa,Asfalto,Si,San Lorenzo 1287,Grande,Impar,Ficus variegado,Media Tensión (Con Protección),7.0,2.4,-58.832248320175005,-27.472305888946
353,378,394,7/10/2023 9:55:33,Registro de Arbol,0,Entre 0.10 y 0.40 m,Nivel del Piso,No,Leve,De 4 y 7 m,Maduro,Sin riesgo de caída,No,Arenosa,Asfalto,Si,San Lorenzo 1289,Grande,Impar,Ficus variegado,Alta tensión (Con Protección),7.0,2.4,-58.83221052522201,-27.472443048997
354,379,395,7/10/2023 9:59:28,Registro de Arbol,0,Entre 0.10 y 0.40 m,Nivel del Piso,No,Sin inclinación,De 4 y 7 m,Maduro,Sin riesgo de caída,No,Arenosa,Asfalto,Si,Belgrano 1513,Mediana,Impar,Ficus variegado,Media Tensión (Con Protección),0.0,2.4,-58.832178302261,-27.472512447975
355,380,396,7/10/2023 10:05:12,Registro de Arbol,0,Entre 0.10 y 0.40 m,Sobre nivel,No,Sin inclinación,De 4 y 7 m,Maduro,Arbol parasitado (con especies vegetales),No,Arenosa,Asfalto,Si,Santa fe 1290,Mediana,Par,Ficus,Media Tensión (Con Protección),4.5,2.4,-58.831047318127005,-27.472507767258
356,381,397,7/10/2023 10:08:27,Registro de Arbol,0,Entre 0.10 y 0.40 m,Sobre nivel,No,Leve,De 4 y 7 m,Maduro,Sin riesgo de caída,Leve,Arenosa,Asfalto,Si,Santa fe 1282,Chica,Par,Ficus,Media Tensión (Con Protección),4.5,2.4,-58.831023150426006,-27.472421220099
357,382,398,7/10/2023 10:13:10,Registro de Arbol,0,Entre 0.10 y 0.40 m,Nivel del Piso,No,Sin inclinación,Menor a 5 m,Maduro,Sin riesgo de caída,No,Arenosa,Asfalto,Si,Santa fe  1268,Chica,Par,Mirto,Media Tensión (Con Protección),22.0,1.9,-58.830988571465,-27.472175661898
358,384,400,7/10/2023 17:05:05,Registro de Arbol,0,Entre 0.10 y 0.40 m,Mediana,No,Sin inclinación,De 5 a 10 m,Maduro,Sin riesgo de caída,No,Arenosa,Asfalto,Si,Belgrano 905,Mediana,Impar,Palmera,Ninguno,70.0,2.0,-58.839323835136,-27.471790216067
359,385,401,7/10/2023 17:11:51,Registro de Arbol,0,Entre 0.10 y 0.40 m,Mediana,Alto,Sin inclinación,De 5 a 10 m,Maduro,Sin riesgo de caída,Considerable,Arenosa,Asfalto,Si,Belgrano 961,Mediana,Impar,Fresno,Alta tensión (Con Protección),6.0,2.0,-58.83888796721601,-27.471835290224
360,386,402,7/10/2023 17:19:45,Registro de Arbol,0,Entre 0.10 y 0.40 m,Mediana,No,Leve,De 10 a 15 m,Añoso,Con riesgo de caída (bajo),Leve,Arenosa,Asfalto,Si,Belgrano 965,Mediana,Impar,Fresno,Alta tensión (Con Protección),6.0,2.0,-58.83876368473601,-27.471846670203004
361,387,403,7/10/2023 17:27:20,Registro de Arbol,0,Entre 0.10 y 0.40 m,Sobre nivel,Moderado,Leve,De 5 a 10 m,Maduro,Sin riesgo de caída,No,Arenosa,Asfalto,Si,Belgrano 965,Mediana,Impar,Fresno,Alta tensión (Con Protección),5.0,2.0,-58.83862519285499,-27.471858453117
362,388,404,7/10/2023 17:33:44,Registro de Arbol,0,Entre 0.10 y 0.40 m,Chica,No,Leve,De 10 a 15 m,Maduro,Sin riesgo de caída,No,Arenosa,Asfalto,Si,La Rioja 1282,Mediana,Par,Fresno,Alta tensión (Con Protección),6.0,2.5,-58.83856074345701,-27.471854717315
363,389,405,7/10/2023 17:39:26,Registro de Arbol,1,Entre 0.10 y 0.40 m,Chica,No,Sin inclinación,Menor a 5 m,Joven,Arbol parasitado ( con hongos ),No,Arenosa,Asfalto,Si,La Rioja 1284,Mediana,Par,Citricos,Ninguno,3.0,2.5,-58.83854651712801,-27.471792369965
364,390,406,7/10/2023 17:44:20,Registro de Arbol,1,Entre 0.10 y 0.40 m,Mediana,Moderado,Leve,De 10 a 15 m,Añoso,Sin riesgo de caída,No,Arenosa,Asfalto,Si,La Rioja 1284,Mediana,Par,Palmera,Ninguno,3.0,2.0,-58.83853136862899,-27.471754270282
365,391,407,8/10/2023 17:52:03,Registro de Arbol,0,Entre 0.10 y 0.40 m,Nivel del Piso,No,Leve,De 5 a 10 m,Maduro,Sin riesgo de caída,Leve,Arenosa,Asfalto,Si,San Juan 1278,Chica,Par,Pata de Buey,Media Tensión (Con Protección),0.0,1.8,-58.837220348778,-27.47179054932
366,392,408,8/10/2023 18:03:57,Registro de Arbol,3,Entre 0.10 y 0.40 m,Sobre nivel,No,Leve,Menor a 5 m,Decrepito,Arbol parasitado (con especies vegetales),No,Arenosa,Asfalto,Si,Bolivar 1084,Grande,Par,Fresno,Media Tensión (Con Protección),7.0,2.75,-58.83715788015701,-27.470896838752
367,393,409,8/10/2023 18:07:26,Registro de Arbol,1,Entre 0.10 y 0.40 m,Sobre nivel,No,Sin inclinación,Menor a 5 m,Maduro,Arbol parasitado (con especies vegetales),Leve,Arenosa,Asfalto,Si,Bolivar 1080,Grande,Par,Fresno,Media Tensión (Con Protección),4.0,2.75,-58.837174784548,-27.470880432134
368,394,410,8/10/2023 18:10:57,Registro de Arbol,0,Entre 0.10 y 0.40 m,Nivel del Piso,No,Sin inclinación,Menor a 5 m,Maduro,Sin riesgo de caída,Leve,Arenosa,Asfalto,Si,Bolivar 1078,Grande,Par,Naranjo agrio,Media Tensión (Con Protección),6.0,2.75,-58.837235165012,-27.470875009322
369,395,411,8/10/2023 18:13:11,Registro de Arbol,0,Entre 0.10 y 0.40 m,Sobre nivel,No,Sin inclinación,De 4 y 7 m,Maduro,Sin riesgo de caída,No,Arenosa,Asfalto,Si,Bolivar 1064,Grande,Par,Palmera,Media Tensión (Con Protección),0.4,2.75,-58.83739452839001,-27.470880838785003
370,396,412,8/10/2023 18:15:26,Registro de Arbol,0,Entre 0.10 y 0.40 m,Sobre nivel,No,Leve,Menor a 5 m,Joven,Sin riesgo de caída,No,Arenosa,Asfalto,Si,Bolivar 1064,Grande,Par,Palmera,Media Tensión (Con Protección),0.4,2.75,-58.83740255032101,-27.470861781876
371,397,413,8/10/2023 18:20:17,Registro de Arbol,0,Entre 0.10 y 0.40 m,Sobre nivel,No,Sin inclinación,De 5 a 10 m,Maduro,Sin riesgo de caída,No,Arenosa,Asfalto,Si,Bolivar 1062,Grande,Par,Palmera,Media Tensión (Con Protección),3.0,2.75,-58.837319381376,-27.470877006743
372,398,414,8/10/2023 18:26:31,Registro de Arbol,0,Entre 0.10 y 0.40 m,Sobre nivel,No,Leve,Menor a 5 m,Joven,Sin riesgo de caída,No,Arenosa,Asfalto,Si,Bolivar 1060,Grande,Par,Palmera,Media Tensión (Con Protección),0.2,2.75,-58.83759083198498,-27.470854707924
373,399,415,8/10/2023 18:30:17,Registro de Arbol,0,Entre 0.10 y 0.40 m,Sobre nivel,No,Sin inclinación,De 5 a 10 m,Maduro,Sin riesgo de caída,No,Arenosa,Asfalto,Si,Bolivar 1060,Grande,Par,Palmera,Media Tensión (Con Protección),0.2,2.75,-58.837452716627,-27.470862277218
374,400,416,8/10/2023 18:35:01,Registro de Arbol,0,Entre 0.10 y 0.40 m,Sobre nivel,No,Leve,Menor a 5 m,Maduro,Sin riesgo de caída,Considerable,Arenosa,Asfalto,Si,Bolivar 1056,Grande,Par,Naranjo agrio,Media Tensión (Con Protección),4.0,2.75,-58.837672609596,-27.470848875879
375,401,417,8/10/2023 18:38:31,Registro de Arbol,1,Entre 0.10 y 0.40 m,Sobre nivel,Mayor al 50% del diámetro del tronco,Leve,De 10 a 15 m,Maduro,Sin riesgo de caída,Leve,Arenosa,Asfalto,Si,Bolivar  1040,Grande,Par,Ficus,Media Tensión (Con Protección),6.0,2.75,-58.837719813462,-27.470899870303
376,402,418,8/10/2023 18:44:26,Registro de Arbol,0,Entre 0.10 y 0.40 m,Sobre nivel,No,Sin inclinación,De 5 a 10 m,Maduro,Sin riesgo de caída,No,Arenosa,Asfalto,Si,Bolivar 1032,Grande,Par,Palmera,Media Tensión (Con Protección),6.0,2.75,-58.837929766866,-27.470842332011
377,403,419,8/10/2023 18:47:52,Registro de Arbol,0,Entre 0.10 y 0.40 m,Nivel del Piso,No,Leve,De 5 a 10 m,Maduro,Sin riesgo de caída,Leve,Arenosa,Asfalto,Si,Bolivar 1010,Grande,Par,Lapacho,Media Tensión (Con Protección),6.0,2.75,-58.838028235598,-27.470829730277
